[
  {
    "name": "Adak, AK",
    "lat": 55.999722,
    "lon": -161.207778
  },
  {
    "name": "Akiachak, AK",
    "lat": 60.891854,
    "lon": -161.39233
  },
  {
    "name": "Akiak, AK",
    "lat": 60.890632,
    "lon": -161.199325
  },
  {
    "name": "Akutan, AK",
    "lat": 54.143012,
    "lon": -165.785368
  },
  {
    "name": "Alakanuk, AK",
    "lat": 62.746967,
    "lon": -164.60228
  },
  {
    "name": "Aleknagik, AK",
    "lat": 59.269688,
    "lon": -158.619882
  },
  {
    "name": "Allakaket, AK",
    "lat": 66.543197,
    "lon": -152.712155
  },
  {
    "name": "Ambler, AK",
    "lat": 67.46951,
    "lon": -156.455652
  },
  {
    "name": "Anaktuvuk Pass, AK",
    "lat": 68.11878,
    "lon": -151.679005
  },
  {
    "name": "Anchor Point, AK",
    "lat": 59.788818,
    "lon": -151.732933
  },
  {
    "name": "Anchorage, AK",
    "lat": 61.211571,
    "lon": -149.876077
  },
  {
    "name": "Anderson, AK",
    "lat": 64.300693,
    "lon": -149.1718
  },
  {
    "name": "Angoon, AK",
    "lat": 57.569832,
    "lon": -134.371052
  },
  {
    "name": "Aniak, AK",
    "lat": 61.691648,
    "lon": -157.758502
  },
  {
    "name": "Anvik, AK",
    "lat": 62.830913,
    "lon": -160.130441
  },
  {
    "name": "Arctic Village, AK",
    "lat": 68.077395,
    "lon": -145.423115
  },
  {
    "name": "Atka, AK",
    "lat": 52.199167,
    "lon": -174.213333
  },
  {
    "name": "Atqasuk, AK",
    "lat": 71.290556,
    "lon": -156.788611
  },
  {
    "name": "Auke Bay, AK",
    "lat": 58.3833,
    "lon": -134.6597
  },
  {
    "name": "Barrow, AK",
    "lat": 71.234637,
    "lon": -156.817409
  },
  {
    "name": "Beaver, AK",
    "lat": 66.33883,
    "lon": -147.279803
  },
  {
    "name": "Bethel, AK",
    "lat": 60.832389,
    "lon": -161.824053
  },
  {
    "name": "Bettles Field, AK",
    "lat": 67.100495,
    "lon": -151.062414
  },
  {
    "name": "Big Lake, AK",
    "lat": 61.5842,
    "lon": -149.4401
  },
  {
    "name": "Brevig Mission, AK",
    "lat": 65.334187,
    "lon": -166.478578
  },
  {
    "name": "Buckland, AK",
    "lat": 65.981052,
    "lon": -161.131676
  },
  {
    "name": "Cantwell, AK",
    "lat": 63.395458,
    "lon": -148.89735
  },
  {
    "name": "Central, AK",
    "lat": 65.468058,
    "lon": -144.74886
  },
  {
    "name": "Chalkyitsik, AK",
    "lat": 66.719,
    "lon": -143.638121
  },
  {
    "name": "Chefornak, AK",
    "lat": 60.153746,
    "lon": -164.210294
  },
  {
    "name": "Chevak, AK",
    "lat": 61.583982,
    "lon": -164.776457
  },
  {
    "name": "Chicken, AK",
    "lat": 64.075,
    "lon": -141.933333
  },
  {
    "name": "Chignik, AK",
    "lat": 56.301639,
    "lon": -158.415696
  },
  {
    "name": "Chignik Lagoon, AK",
    "lat": 56.251277,
    "lon": -158.673528
  },
  {
    "name": "Chignik Lake, AK",
    "lat": 56.255556,
    "lon": -158.7625
  },
  {
    "name": "Chitina, AK",
    "lat": 61.516667,
    "lon": -144.436667
  },
  {
    "name": "Chugiak, AK",
    "lat": 61.409802,
    "lon": -149.453736
  },
  {
    "name": "Circle, AK",
    "lat": 65.824542,
    "lon": -144.08262
  },
  {
    "name": "Clam Gulch, AK",
    "lat": 60.201603,
    "lon": -151.422628
  },
  {
    "name": "Clarks Point, AK",
    "lat": 58.84921,
    "lon": -158.451241
  },
  {
    "name": "Clear, AK",
    "lat": 64.418121,
    "lon": -149.139885
  },
  {
    "name": "Coffman Cove, AK",
    "lat": 55.342222,
    "lon": -131.646111
  },
  {
    "name": "Cold Bay, AK",
    "lat": 55.610952,
    "lon": -161.942941
  },
  {
    "name": "Cooper Landing, AK",
    "lat": 60.476692,
    "lon": -149.823514
  },
  {
    "name": "Copper Center, AK",
    "lat": 61.91581,
    "lon": -144.97793
  },
  {
    "name": "Cordova, AK",
    "lat": 60.102558,
    "lon": -147.943316
  },
  {
    "name": "Craig, AK",
    "lat": 55.47317,
    "lon": -133.117081
  },
  {
    "name": "Crooked Creek, AK",
    "lat": 61.818072,
    "lon": -158.002483
  },
  {
    "name": "Deering, AK",
    "lat": 66.062265,
    "lon": -162.711951
  },
  {
    "name": "Delta Junction, AK",
    "lat": 64.005426,
    "lon": -145.613611
  },
  {
    "name": "Denali National Park, AK",
    "lat": 63.516075,
    "lon": -149.539532
  },
  {
    "name": "Dillingham, AK",
    "lat": 59.059279,
    "lon": -158.973533
  },
  {
    "name": "Douglas, AK",
    "lat": 58.275597,
    "lon": -134.395041
  },
  {
    "name": "Dutch Harbor, AK",
    "lat": 53.362757,
    "lon": -167.510656
  },
  {
    "name": "Eagle, AK",
    "lat": 64.783333,
    "lon": -141.2
  },
  {
    "name": "Eagle River, AK",
    "lat": 61.311357,
    "lon": -149.508515
  },
  {
    "name": "Eek, AK",
    "lat": 60.215058,
    "lon": -162.032341
  },
  {
    "name": "Egegik, AK",
    "lat": 58.206174,
    "lon": -157.342202
  },
  {
    "name": "Eielson Afb, AK",
    "lat": 64.67352,
    "lon": -147.08051
  },
  {
    "name": "Ekwok, AK",
    "lat": 59.362792,
    "lon": -157.478211
  },
  {
    "name": "Elfin Cove, AK",
    "lat": 58.195,
    "lon": -136.358333
  },
  {
    "name": "Elim, AK",
    "lat": 64.621662,
    "lon": -162.260371
  },
  {
    "name": "Elmendorf Afb, AK",
    "lat": 61.251531,
    "lon": -149.812667
  },
  {
    "name": "Emmonak, AK",
    "lat": 62.827404,
    "lon": -164.131298
  },
  {
    "name": "Ester, AK",
    "lat": 64.846667,
    "lon": -148.016667
  },
  {
    "name": "Fairbanks, AK",
    "lat": 64.840238,
    "lon": -147.710431
  },
  {
    "name": "False Pass, AK",
    "lat": 54.841028,
    "lon": -163.436845
  },
  {
    "name": "Fort Greely, AK",
    "lat": 64.036667,
    "lon": -145.733333
  },
  {
    "name": "Fort Richardson, AK",
    "lat": 61.275256,
    "lon": -149.675454
  },
  {
    "name": "Fort Wainwright, AK",
    "lat": 64.828303,
    "lon": -147.655673
  },
  {
    "name": "Fort Yukon, AK",
    "lat": 66.520744,
    "lon": -145.306439
  },
  {
    "name": "Gakona, AK",
    "lat": 62.654744,
    "lon": -143.568393
  },
  {
    "name": "Galena, AK",
    "lat": 64.760784,
    "lon": -156.797701
  },
  {
    "name": "Gambell, AK",
    "lat": 63.776555,
    "lon": -171.701685
  },
  {
    "name": "Girdwood, AK",
    "lat": 60.9425,
    "lon": -149.166389
  },
  {
    "name": "Glennallen, AK",
    "lat": 62.103895,
    "lon": -145.661684
  },
  {
    "name": "Goodnews Bay, AK",
    "lat": 59.085008,
    "lon": -161.587146
  },
  {
    "name": "Grayling, AK",
    "lat": 63.372013,
    "lon": -159.404907
  },
  {
    "name": "Gustavus, AK",
    "lat": 58.42835,
    "lon": -135.761542
  },
  {
    "name": "Haines, AK",
    "lat": 59.251886,
    "lon": -135.542032
  },
  {
    "name": "Healy, AK",
    "lat": 63.917123,
    "lon": -149.011128
  },
  {
    "name": "Holy Cross, AK",
    "lat": 62.192584,
    "lon": -159.825092
  },
  {
    "name": "Homer, AK",
    "lat": 59.665495,
    "lon": -151.462644
  },
  {
    "name": "Hoonah, AK",
    "lat": 58.032237,
    "lon": -135.558435
  },
  {
    "name": "Hooper Bay, AK",
    "lat": 61.537157,
    "lon": -165.891045
  },
  {
    "name": "Hope, AK",
    "lat": 60.92,
    "lon": -149.641667
  },
  {
    "name": "Houston, AK",
    "lat": 61.633611,
    "lon": -149.841111
  },
  {
    "name": "Hughes, AK",
    "lat": 66.038246,
    "lon": -154.26443
  },
  {
    "name": "Huslia, AK",
    "lat": 65.689918,
    "lon": -156.291976
  },
  {
    "name": "Hydaburg, AK",
    "lat": 55.137406,
    "lon": -132.633175
  },
  {
    "name": "Hyder, AK",
    "lat": 55.925867,
    "lon": -130.124915
  },
  {
    "name": "Iliamna, AK",
    "lat": 59.564836,
    "lon": -155.462556
  },
  {
    "name": "Indian, AK",
    "lat": 60.9804,
    "lon": -149.4917
  },
  {
    "name": "Juneau, AK",
    "lat": 58.362767,
    "lon": -134.529429
  },
  {
    "name": "Kake, AK",
    "lat": 56.975833,
    "lon": -133.947222
  },
  {
    "name": "Kaktovik, AK",
    "lat": 70.042889,
    "lon": -143.631329
  },
  {
    "name": "Kalskag, AK",
    "lat": 61.541006,
    "lon": -160.3261
  },
  {
    "name": "Kaltag, AK",
    "lat": 64.330452,
    "lon": -158.724251
  },
  {
    "name": "Karluk, AK",
    "lat": 57.57,
    "lon": -154.458333
  },
  {
    "name": "Kasigluk, AK",
    "lat": 60.895556,
    "lon": -162.520556
  },
  {
    "name": "Kasilof, AK",
    "lat": 60.316365,
    "lon": -151.28958
  },
  {
    "name": "Kenai, AK",
    "lat": 60.614467,
    "lon": -151.254556
  },
  {
    "name": "Ketchikan, AK",
    "lat": 55.372028,
    "lon": -131.683175
  },
  {
    "name": "Kiana, AK",
    "lat": 67.18026,
    "lon": -158.152204
  },
  {
    "name": "King Cove, AK",
    "lat": 55.062848,
    "lon": -162.305561
  },
  {
    "name": "King Salmon, AK",
    "lat": 58.724264,
    "lon": -156.641603
  },
  {
    "name": "Kipnuk, AK",
    "lat": 59.923204,
    "lon": -164.101013
  },
  {
    "name": "Kivalina, AK",
    "lat": 67.665859,
    "lon": -163.733617
  },
  {
    "name": "Klawock, AK",
    "lat": 55.552611,
    "lon": -133.055503
  },
  {
    "name": "Kobuk, AK",
    "lat": 66.912253,
    "lon": -157.066864
  },
  {
    "name": "Kodiak, AK",
    "lat": 57.781967,
    "lon": -152.500169
  },
  {
    "name": "Kongiganak, AK",
    "lat": 60.9888,
    "lon": -149.4116
  },
  {
    "name": "Kotlik, AK",
    "lat": 63.029471,
    "lon": -163.554153
  },
  {
    "name": "Kotzebue, AK",
    "lat": 66.846459,
    "lon": -162.126493
  },
  {
    "name": "Koyuk, AK",
    "lat": 64.931668,
    "lon": -161.149957
  },
  {
    "name": "Koyukuk, AK",
    "lat": 64.883333,
    "lon": -157.7
  },
  {
    "name": "Kwethluk, AK",
    "lat": 60.771814,
    "lon": -161.38849
  },
  {
    "name": "Kwigillingok, AK",
    "lat": 59.881022,
    "lon": -162.984938
  },
  {
    "name": "Lake Minchumina, AK",
    "lat": 63.903884,
    "lon": -152.430081
  },
  {
    "name": "Larsen Bay, AK",
    "lat": 57.538333,
    "lon": -153.98
  },
  {
    "name": "Levelock, AK",
    "lat": 59.371395,
    "lon": -154.976815
  },
  {
    "name": "Lower Kalskag, AK",
    "lat": 61.51377,
    "lon": -160.359966
  },
  {
    "name": "Manley Hot Springs, AK",
    "lat": 65.02058,
    "lon": -150.573267
  },
  {
    "name": "Manokotak, AK",
    "lat": 59.009559,
    "lon": -158.989699
  },
  {
    "name": "Marshall, AK",
    "lat": 61.837087,
    "lon": -161.7394
  },
  {
    "name": "Mc Grath, AK",
    "lat": 62.967153,
    "lon": -155.585153
  },
  {
    "name": "Mekoryuk, AK",
    "lat": 60.365679,
    "lon": -166.283583
  },
  {
    "name": "Metlakatla, AK",
    "lat": 55.121491,
    "lon": -131.579001
  },
  {
    "name": "Meyers Chuck, AK",
    "lat": 55.741667,
    "lon": -132.253333
  },
  {
    "name": "Minto, AK",
    "lat": 65.058399,
    "lon": -149.691186
  },
  {
    "name": "Moose Pass, AK",
    "lat": 60.85852,
    "lon": -149.255911
  },
  {
    "name": "Mountain Village, AK",
    "lat": 62.158913,
    "lon": -163.883822
  },
  {
    "name": "Naknek, AK",
    "lat": 58.885699,
    "lon": -156.705405
  },
  {
    "name": "Napakiak, AK",
    "lat": 60.663758,
    "lon": -161.738144
  },
  {
    "name": "Nenana, AK",
    "lat": 64.557656,
    "lon": -149.086744
  },
  {
    "name": "New Stuyahok, AK",
    "lat": 59.593533,
    "lon": -157.297205
  },
  {
    "name": "Nightmute, AK",
    "lat": 60.479444,
    "lon": -164.723889
  },
  {
    "name": "Nikiski, AK",
    "lat": 60.690278,
    "lon": -151.288889
  },
  {
    "name": "Nikolai, AK",
    "lat": 63.001603,
    "lon": -154.381247
  },
  {
    "name": "Nikolski, AK",
    "lat": 52.988337,
    "lon": -168.788427
  },
  {
    "name": "Ninilchik, AK",
    "lat": 60.010833,
    "lon": -151.639604
  },
  {
    "name": "Noatak, AK",
    "lat": 66.97553,
    "lon": -160.509453
  },
  {
    "name": "Nome, AK",
    "lat": 64.505775,
    "lon": -165.310667
  },
  {
    "name": "Nondalton, AK",
    "lat": 60.030837,
    "lon": -154.731675
  },
  {
    "name": "Noorvik, AK",
    "lat": 66.836353,
    "lon": -161.044132
  },
  {
    "name": "North Pole, AK",
    "lat": 64.78049,
    "lon": -147.369353
  },
  {
    "name": "Northway, AK",
    "lat": 62.964167,
    "lon": -141.908611
  },
  {
    "name": "Nuiqsut, AK",
    "lat": 70.192737,
    "lon": -150.997119
  },
  {
    "name": "Nulato, AK",
    "lat": 64.778024,
    "lon": -157.991353
  },
  {
    "name": "Nunam Iqua, AK",
    "lat": 62.509167,
    "lon": -164.453333
  },
  {
    "name": "Nunapitchuk, AK",
    "lat": 60.896944,
    "lon": -162.459444
  },
  {
    "name": "Old Harbor, AK",
    "lat": 57.202778,
    "lon": -153.303889
  },
  {
    "name": "Ouzinkie, AK",
    "lat": 57.925,
    "lon": -152.491667
  },
  {
    "name": "Palmer, AK",
    "lat": 61.613814,
    "lon": -149.065323
  },
  {
    "name": "Pedro Bay, AK",
    "lat": 59.92238,
    "lon": -153.821856
  },
  {
    "name": "Pelican, AK",
    "lat": 57.960833,
    "lon": -136.2275
  },
  {
    "name": "Perryville, AK",
    "lat": 55.945289,
    "lon": -159.259333
  },
  {
    "name": "Petersburg, AK",
    "lat": 56.827134,
    "lon": -133.160683
  },
  {
    "name": "Pilot Point, AK",
    "lat": 57.595193,
    "lon": -157.449272
  },
  {
    "name": "Pilot Station, AK",
    "lat": 61.946159,
    "lon": -162.874716
  },
  {
    "name": "Platinum, AK",
    "lat": 58.63364,
    "lon": -162.043201
  },
  {
    "name": "Point Baker, AK",
    "lat": 56.307858,
    "lon": -133.376372
  },
  {
    "name": "Point Hope, AK",
    "lat": 68.312058,
    "lon": -166.72618
  },
  {
    "name": "Point Lay, AK",
    "lat": 69.705626,
    "lon": -162.906148
  },
  {
    "name": "Port Alexander, AK",
    "lat": 57.05,
    "lon": -135.333333
  },
  {
    "name": "Port Alsworth, AK",
    "lat": 60.636416,
    "lon": -154.433803
  },
  {
    "name": "Port Heiden, AK",
    "lat": 56.964333,
    "lon": -158.566367
  },
  {
    "name": "Port Lions, AK",
    "lat": 57.866667,
    "lon": -152.883333
  },
  {
    "name": "Prudhoe Bay, AK",
    "lat": 70.070057,
    "lon": -148.559636
  },
  {
    "name": "Quinhagak, AK",
    "lat": 59.738057,
    "lon": -161.874938
  },
  {
    "name": "Rampart, AK",
    "lat": 65.383627,
    "lon": -150.011201
  },
  {
    "name": "Red Devil, AK",
    "lat": 61.735389,
    "lon": -157.195969
  },
  {
    "name": "Ruby, AK",
    "lat": 64.720062,
    "lon": -155.503872
  },
  {
    "name": "Russian Mission, AK",
    "lat": 61.591302,
    "lon": -161.558413
  },
  {
    "name": "Saint George Island, AK",
    "lat": 56.60324,
    "lon": -169.547257
  },
  {
    "name": "Saint Marys, AK",
    "lat": 62.054106,
    "lon": -163.205263
  },
  {
    "name": "Saint Michael, AK",
    "lat": 63.47759,
    "lon": -162.109141
  },
  {
    "name": "Saint Paul Island, AK",
    "lat": 57.178697,
    "lon": -170.293408
  },
  {
    "name": "Salcha, AK",
    "lat": 64.50905,
    "lon": -146.952974
  },
  {
    "name": "Sand Point, AK",
    "lat": 55.319236,
    "lon": -160.491435
  },
  {
    "name": "Savoonga, AK",
    "lat": 63.679737,
    "lon": -170.470908
  },
  {
    "name": "Scammon Bay, AK",
    "lat": 61.845019,
    "lon": -165.581945
  },
  {
    "name": "Selawik, AK",
    "lat": 65.713537,
    "lon": -158.534287
  },
  {
    "name": "Seldovia, AK",
    "lat": 59.436667,
    "lon": -151.708333
  },
  {
    "name": "Seward, AK",
    "lat": 60.132874,
    "lon": -149.39849
  },
  {
    "name": "Shageluk, AK",
    "lat": 62.661092,
    "lon": -159.52816
  },
  {
    "name": "Shaktoolik, AK",
    "lat": 64.375498,
    "lon": -161.174589
  },
  {
    "name": "Shishmaref, AK",
    "lat": 66.230562,
    "lon": -166.137276
  },
  {
    "name": "Shungnak, AK",
    "lat": 66.958141,
    "lon": -157.613496
  },
  {
    "name": "Sitka, AK",
    "lat": 57.051436,
    "lon": -135.316569
  },
  {
    "name": "Skagway, AK",
    "lat": 59.468471,
    "lon": -135.301794
  },
  {
    "name": "Skwentna, AK",
    "lat": 61.958333,
    "lon": -151.181667
  },
  {
    "name": "Sleetmute, AK",
    "lat": 61.634555,
    "lon": -157.118284
  },
  {
    "name": "Soldotna, AK",
    "lat": 60.481778,
    "lon": -151.13582
  },
  {
    "name": "South Naknek, AK",
    "lat": 58.736221,
    "lon": -156.850289
  },
  {
    "name": "Stebbins, AK",
    "lat": 63.478468,
    "lon": -162.227355
  },
  {
    "name": "Sterling, AK",
    "lat": 60.520373,
    "lon": -150.849792
  },
  {
    "name": "Stevens Village, AK",
    "lat": 65.995894,
    "lon": -149.118286
  },
  {
    "name": "Sutton, AK",
    "lat": 61.796667,
    "lon": -148.462778
  },
  {
    "name": "Takotna, AK",
    "lat": 62.948889,
    "lon": -155.566389
  },
  {
    "name": "Talkeetna, AK",
    "lat": 62.260516,
    "lon": -150.110097
  },
  {
    "name": "Tanacross, AK",
    "lat": 63.385278,
    "lon": -143.346389
  },
  {
    "name": "Tanana, AK",
    "lat": 65.156483,
    "lon": -152.103747
  },
  {
    "name": "Tatitlek, AK",
    "lat": 60.864722,
    "lon": -146.678611
  },
  {
    "name": "Teller, AK",
    "lat": 65.240164,
    "lon": -166.3833
  },
  {
    "name": "Tenakee Springs, AK",
    "lat": 57.78,
    "lon": -135.216667
  },
  {
    "name": "Thorne Bay, AK",
    "lat": 55.66086,
    "lon": -132.513815
  },
  {
    "name": "Togiak, AK",
    "lat": 59.066667,
    "lon": -160.4
  },
  {
    "name": "Tok, AK",
    "lat": 63.333333,
    "lon": -142.983333
  },
  {
    "name": "Toksook Bay, AK",
    "lat": 60.537,
    "lon": -165.097
  },
  {
    "name": "Trapper Creek, AK",
    "lat": 61.441361,
    "lon": -150.284455
  },
  {
    "name": "Tuluksak, AK",
    "lat": 61.108848,
    "lon": -160.938924
  },
  {
    "name": "Tuntutuliak, AK",
    "lat": 60.8438,
    "lon": -161.6372
  },
  {
    "name": "Tununak, AK",
    "lat": 60.539322,
    "lon": -165.097464
  },
  {
    "name": "Two Rivers, AK",
    "lat": 64.871944,
    "lon": -147.038056
  },
  {
    "name": "Tyonek, AK",
    "lat": 61.117929,
    "lon": -151.348495
  },
  {
    "name": "Unalakleet, AK",
    "lat": 63.883478,
    "lon": -160.788365
  },
  {
    "name": "Unalaska, AK",
    "lat": 53.887114,
    "lon": -166.519855
  },
  {
    "name": "Valdez, AK",
    "lat": 60.895044,
    "lon": -146.195628
  },
  {
    "name": "Venetie, AK",
    "lat": 67.010446,
    "lon": -146.413723
  },
  {
    "name": "Wainwright, AK",
    "lat": 70.620064,
    "lon": -160.012532
  },
  {
    "name": "Wales, AK",
    "lat": 65.688212,
    "lon": -168.520521
  },
  {
    "name": "Ward Cove, AK",
    "lat": 55.408333,
    "lon": -131.725
  },
  {
    "name": "Wasilla, AK",
    "lat": 61.5814,
    "lon": -149.4394
  },
  {
    "name": "White Mountain, AK",
    "lat": 64.702791,
    "lon": -163.42185
  },
  {
    "name": "Whittier, AK",
    "lat": 60.775,
    "lon": -148.683333
  },
  {
    "name": "Willow, AK",
    "lat": 61.771511,
    "lon": -150.188891
  },
  {
    "name": "Wrangell, AK",
    "lat": 56.433524,
    "lon": -132.352918
  },
  {
    "name": "Yakutat, AK",
    "lat": 59.620211,
    "lon": -139.778858
  },
  {
    "name": "Abbeville, AL",
    "lat": 31.575479,
    "lon": -85.279044
  },
  {
    "name": "Abernant, AL",
    "lat": 33.290278,
    "lon": -87.198056
  },
  {
    "name": "Adamsville, AL",
    "lat": 33.588437,
    "lon": -86.959727
  },
  {
    "name": "Addison, AL",
    "lat": 34.205571,
    "lon": -87.194766
  },
  {
    "name": "Adger, AL",
    "lat": 33.434277,
    "lon": -87.167455
  },
  {
    "name": "Akron, AL",
    "lat": 32.872354,
    "lon": -87.708558
  },
  {
    "name": "Alabaster, AL",
    "lat": 33.236868,
    "lon": -86.812861
  },
  {
    "name": "Alberta, AL",
    "lat": 32.144889,
    "lon": -87.342503
  },
  {
    "name": "Albertville, AL",
    "lat": 34.273859,
    "lon": -86.206447
  },
  {
    "name": "Alexander City, AL",
    "lat": 32.941445,
    "lon": -85.951086
  },
  {
    "name": "Alexandria, AL",
    "lat": 33.780785,
    "lon": -85.892447
  },
  {
    "name": "Aliceville, AL",
    "lat": 33.122813,
    "lon": -88.166689
  },
  {
    "name": "Allgood, AL",
    "lat": 33.911944,
    "lon": -86.509444
  },
  {
    "name": "Alma, AL",
    "lat": 31.463889,
    "lon": -87.753889
  },
  {
    "name": "Alpine, AL",
    "lat": 33.331165,
    "lon": -86.208934
  },
  {
    "name": "Alton, AL",
    "lat": 33.579167,
    "lon": -86.6375
  },
  {
    "name": "Altoona, AL",
    "lat": 34.042916,
    "lon": -86.350879
  },
  {
    "name": "Andalusia, AL",
    "lat": 31.297142,
    "lon": -86.490468
  },
  {
    "name": "Anderson, AL",
    "lat": 34.951777,
    "lon": -87.272327
  },
  {
    "name": "Annemanie, AL",
    "lat": 32.052778,
    "lon": -87.570833
  },
  {
    "name": "Anniston, AL",
    "lat": 33.653896,
    "lon": -85.838152
  },
  {
    "name": "Arab, AL",
    "lat": 34.328339,
    "lon": -86.489638
  },
  {
    "name": "Ardmore, AL",
    "lat": 34.980447,
    "lon": -86.834612
  },
  {
    "name": "Ariton, AL",
    "lat": 31.582996,
    "lon": -85.707716
  },
  {
    "name": "Arley, AL",
    "lat": 34.063234,
    "lon": -87.182761
  },
  {
    "name": "Arlington, AL",
    "lat": 32.066784,
    "lon": -87.559691
  },
  {
    "name": "Ashford, AL",
    "lat": 31.1888,
    "lon": -85.253488
  },
  {
    "name": "Ashland, AL",
    "lat": 33.247363,
    "lon": -85.828976
  },
  {
    "name": "Ashville, AL",
    "lat": 33.837366,
    "lon": -86.255167
  },
  {
    "name": "Athens, AL",
    "lat": 34.803604,
    "lon": -86.970733
  },
  {
    "name": "Atmore, AL",
    "lat": 31.057245,
    "lon": -87.487347
  },
  {
    "name": "Attalla, AL",
    "lat": 34.029597,
    "lon": -86.096717
  },
  {
    "name": "Auburn, AL",
    "lat": 32.602043,
    "lon": -85.489001
  },
  {
    "name": "Auburn University, AL",
    "lat": 32.601,
    "lon": -85.4882
  },
  {
    "name": "Autaugaville, AL",
    "lat": 32.462462,
    "lon": -86.714938
  },
  {
    "name": "Axis, AL",
    "lat": 31.006817,
    "lon": -88.04274
  },
  {
    "name": "Baileyton, AL",
    "lat": 34.268298,
    "lon": -86.621299
  },
  {
    "name": "Banks, AL",
    "lat": 31.836792,
    "lon": -85.799844
  },
  {
    "name": "Bankston, AL",
    "lat": 33.70083,
    "lon": -87.68965
  },
  {
    "name": "Bay Minette, AL",
    "lat": 30.86354,
    "lon": -87.76444
  },
  {
    "name": "Bayou La Batre, AL",
    "lat": 30.407983,
    "lon": -88.250697
  },
  {
    "name": "Bear Creek, AL",
    "lat": 34.213469,
    "lon": -87.686083
  },
  {
    "name": "Beatrice, AL",
    "lat": 31.727324,
    "lon": -87.171912
  },
  {
    "name": "Beaverton, AL",
    "lat": 33.942877,
    "lon": -88.01567
  },
  {
    "name": "Belk, AL",
    "lat": 33.6475,
    "lon": -87.931389
  },
  {
    "name": "Bellamy, AL",
    "lat": 32.448889,
    "lon": -88.133611
  },
  {
    "name": "Belle Mina, AL",
    "lat": 34.656667,
    "lon": -86.879167
  },
  {
    "name": "Bellwood, AL",
    "lat": 31.173056,
    "lon": -85.793333
  },
  {
    "name": "Berry, AL",
    "lat": 33.694485,
    "lon": -87.622563
  },
  {
    "name": "Bessemer, AL",
    "lat": 33.409002,
    "lon": -86.947547
  },
  {
    "name": "Billingsley, AL",
    "lat": 32.610578,
    "lon": -86.716301
  },
  {
    "name": "Birmingham, AL",
    "lat": 33.519,
    "lon": -86.8014
  },
  {
    "name": "Birmingham, AL",
    "lat": 33.401559,
    "lon": -86.705511
  },
  {
    "name": "Black, AL",
    "lat": 31.01318,
    "lon": -85.745634
  },
  {
    "name": "Blountsville, AL",
    "lat": 34.092937,
    "lon": -86.568628
  },
  {
    "name": "Boaz, AL",
    "lat": 34.173889,
    "lon": -86.121111
  },
  {
    "name": "Boaz, AL",
    "lat": 34.173686,
    "lon": -86.148003
  },
  {
    "name": "Boligee, AL",
    "lat": 32.774646,
    "lon": -88.026652
  },
  {
    "name": "Bon Air, AL",
    "lat": 33.263611,
    "lon": -86.335556
  },
  {
    "name": "Bon Secour, AL",
    "lat": 30.328883,
    "lon": -87.721355
  },
  {
    "name": "Booth, AL",
    "lat": 32.500278,
    "lon": -86.571944
  },
  {
    "name": "Boykin, AL",
    "lat": 32.077778,
    "lon": -87.281389
  },
  {
    "name": "Brantley, AL",
    "lat": 31.570963,
    "lon": -86.274343
  },
  {
    "name": "Bremen, AL",
    "lat": 33.973664,
    "lon": -87.004281
  },
  {
    "name": "Brent, AL",
    "lat": 32.93567,
    "lon": -87.211387
  },
  {
    "name": "Brewton, AL",
    "lat": 31.118926,
    "lon": -87.067325
  },
  {
    "name": "Bridgeport, AL",
    "lat": 34.944638,
    "lon": -85.727681
  },
  {
    "name": "Brierfield, AL",
    "lat": 33.042747,
    "lon": -86.951672
  },
  {
    "name": "Brilliant, AL",
    "lat": 34.037702,
    "lon": -87.756315
  },
  {
    "name": "Brooklyn, AL",
    "lat": 31.2625,
    "lon": -86.771111
  },
  {
    "name": "Brookside, AL",
    "lat": 33.637778,
    "lon": -86.916667
  },
  {
    "name": "Brookwood, AL",
    "lat": 33.277523,
    "lon": -87.309025
  },
  {
    "name": "Brownsboro, AL",
    "lat": 34.716733,
    "lon": -86.468703
  },
  {
    "name": "Brundidge, AL",
    "lat": 31.701324,
    "lon": -85.817668
  },
  {
    "name": "Bryant, AL",
    "lat": 34.945026,
    "lon": -85.632445
  },
  {
    "name": "Bucks, AL",
    "lat": 31.010278,
    "lon": -88.024167
  },
  {
    "name": "Buhl, AL",
    "lat": 33.249448,
    "lon": -87.718886
  },
  {
    "name": "Burnt Corn, AL",
    "lat": 31.458009,
    "lon": -86.925771
  },
  {
    "name": "Burnwell, AL",
    "lat": 33.707778,
    "lon": -87.0875
  },
  {
    "name": "Butler, AL",
    "lat": 32.082906,
    "lon": -88.206391
  },
  {
    "name": "Bynum, AL",
    "lat": 33.613056,
    "lon": -85.961111
  },
  {
    "name": "Calera, AL",
    "lat": 33.1098,
    "lon": -86.755987
  },
  {
    "name": "Calvert, AL",
    "lat": 31.160556,
    "lon": -88.031111
  },
  {
    "name": "Camden, AL",
    "lat": 32.004732,
    "lon": -87.295049
  },
  {
    "name": "Camp Hill, AL",
    "lat": 32.782749,
    "lon": -85.64738
  },
  {
    "name": "Campbell, AL",
    "lat": 31.963512,
    "lon": -88.006072
  },
  {
    "name": "Capshaw, AL",
    "lat": 34.773056,
    "lon": -86.792778
  },
  {
    "name": "Carbon Hill, AL",
    "lat": 33.909252,
    "lon": -87.540328
  },
  {
    "name": "Cardiff, AL",
    "lat": 33.645556,
    "lon": -86.933611
  },
  {
    "name": "Carlton, AL",
    "lat": 31.322449,
    "lon": -87.837793
  },
  {
    "name": "Carrollton, AL",
    "lat": 33.248506,
    "lon": -88.132122
  },
  {
    "name": "Castleberry, AL",
    "lat": 31.326113,
    "lon": -87.026754
  },
  {
    "name": "Catherine, AL",
    "lat": 32.182,
    "lon": -87.483623
  },
  {
    "name": "Cecil, AL",
    "lat": 32.300891,
    "lon": -86.011241
  },
  {
    "name": "Cedar Bluff, AL",
    "lat": 34.241662,
    "lon": -85.602567
  },
  {
    "name": "Centre, AL",
    "lat": 34.111592,
    "lon": -85.609229
  },
  {
    "name": "Centreville, AL",
    "lat": 32.950324,
    "lon": -87.11924
  },
  {
    "name": "Chancellor, AL",
    "lat": 31.173379,
    "lon": -85.910897
  },
  {
    "name": "Chapman, AL",
    "lat": 31.671111,
    "lon": -86.712222
  },
  {
    "name": "Chatom, AL",
    "lat": 31.487638,
    "lon": -88.269887
  },
  {
    "name": "Chelsea, AL",
    "lat": 33.371582,
    "lon": -86.614132
  },
  {
    "name": "Cherokee, AL",
    "lat": 34.744188,
    "lon": -87.972445
  },
  {
    "name": "Childersburg, AL",
    "lat": 33.266928,
    "lon": -86.337622
  },
  {
    "name": "Choccolocco, AL",
    "lat": 33.659167,
    "lon": -85.703611
  },
  {
    "name": "Chunchula, AL",
    "lat": 30.991178,
    "lon": -88.131126
  },
  {
    "name": "Citronelle, AL",
    "lat": 31.042533,
    "lon": -88.254949
  },
  {
    "name": "Clanton, AL",
    "lat": 32.835532,
    "lon": -86.642472
  },
  {
    "name": "Clay, AL",
    "lat": 33.7025,
    "lon": -86.599722
  },
  {
    "name": "Clayton, AL",
    "lat": 31.887413,
    "lon": -85.450932
  },
  {
    "name": "Cleveland, AL",
    "lat": 33.992106,
    "lon": -86.559355
  },
  {
    "name": "Clinton, AL",
    "lat": 32.913611,
    "lon": -87.9925
  },
  {
    "name": "Clio, AL",
    "lat": 31.68521,
    "lon": -85.590419
  },
  {
    "name": "Clopton, AL",
    "lat": 31.602843,
    "lon": -85.482308
  },
  {
    "name": "Cloverdale, AL",
    "lat": 34.938611,
    "lon": -87.771389
  },
  {
    "name": "Coaling, AL",
    "lat": 33.158889,
    "lon": -87.340833
  },
  {
    "name": "Coden, AL",
    "lat": 30.418834,
    "lon": -88.168276
  },
  {
    "name": "Coffee Springs, AL",
    "lat": 31.138758,
    "lon": -85.918224
  },
  {
    "name": "Coffeeville, AL",
    "lat": 31.78428,
    "lon": -88.071542
  },
  {
    "name": "Coker, AL",
    "lat": 33.252612,
    "lon": -87.636528
  },
  {
    "name": "Collinsville, AL",
    "lat": 34.267957,
    "lon": -85.861969
  },
  {
    "name": "Columbia, AL",
    "lat": 31.335235,
    "lon": -85.145488
  },
  {
    "name": "Columbiana, AL",
    "lat": 33.176964,
    "lon": -86.616145
  },
  {
    "name": "Cook Springs, AL",
    "lat": 33.589722,
    "lon": -86.361944
  },
  {
    "name": "Coosada, AL",
    "lat": 32.496667,
    "lon": -86.331667
  },
  {
    "name": "Cordova, AL",
    "lat": 33.768033,
    "lon": -87.18406
  },
  {
    "name": "Cottondale, AL",
    "lat": 33.176667,
    "lon": -87.387051
  },
  {
    "name": "Cottonton, AL",
    "lat": 32.146667,
    "lon": -85.073889
  },
  {
    "name": "Cottonwood, AL",
    "lat": 31.098934,
    "lon": -85.375665
  },
  {
    "name": "Courtland, AL",
    "lat": 34.671866,
    "lon": -87.314255
  },
  {
    "name": "Cowarts, AL",
    "lat": 31.2,
    "lon": -85.304722
  },
  {
    "name": "Coy, AL",
    "lat": 31.888851,
    "lon": -87.392558
  },
  {
    "name": "Cragford, AL",
    "lat": 33.217148,
    "lon": -85.710797
  },
  {
    "name": "Crane Hill, AL",
    "lat": 34.082117,
    "lon": -87.048395
  },
  {
    "name": "Creola, AL",
    "lat": 30.901267,
    "lon": -88.017414
  },
  {
    "name": "Cropwell, AL",
    "lat": 33.506448,
    "lon": -86.280026
  },
  {
    "name": "Crossville, AL",
    "lat": 34.258784,
    "lon": -86.030575
  },
  {
    "name": "Cuba, AL",
    "lat": 32.410973,
    "lon": -88.361083
  },
  {
    "name": "Cullman, AL",
    "lat": 34.176146,
    "lon": -86.829777
  },
  {
    "name": "Cusseta, AL",
    "lat": 32.803194,
    "lon": -85.215791
  },
  {
    "name": "Dadeville, AL",
    "lat": 32.82239,
    "lon": -85.770395
  },
  {
    "name": "Daleville, AL",
    "lat": 31.281091,
    "lon": -85.730473
  },
  {
    "name": "Danville, AL",
    "lat": 34.452189,
    "lon": -87.053187
  },
  {
    "name": "Daphne, AL",
    "lat": 30.61972,
    "lon": -87.889522
  },
  {
    "name": "Dauphin Island, AL",
    "lat": 30.252057,
    "lon": -88.109644
  },
  {
    "name": "Daviston, AL",
    "lat": 33.033471,
    "lon": -85.753831
  },
  {
    "name": "Dawson, AL",
    "lat": 34.356838,
    "lon": -85.929161
  },
  {
    "name": "De Armanville, AL",
    "lat": 33.626389,
    "lon": -85.751389
  },
  {
    "name": "Deatsville, AL",
    "lat": 32.613405,
    "lon": -86.338211
  },
  {
    "name": "Decatur, AL",
    "lat": 34.589599,
    "lon": -86.98868
  },
  {
    "name": "Deer Park, AL",
    "lat": 31.184892,
    "lon": -88.32731
  },
  {
    "name": "Delmar, AL",
    "lat": 34.17,
    "lon": -87.605833
  },
  {
    "name": "Delta, AL",
    "lat": 33.457303,
    "lon": -85.679279
  },
  {
    "name": "Demopolis, AL",
    "lat": 32.490792,
    "lon": -87.839669
  },
  {
    "name": "Detroit, AL",
    "lat": 34.010874,
    "lon": -88.16063
  },
  {
    "name": "Dickinson, AL",
    "lat": 31.717167,
    "lon": -87.656929
  },
  {
    "name": "Dixons Mills, AL",
    "lat": 32.067209,
    "lon": -87.745356
  },
  {
    "name": "Docena, AL",
    "lat": 33.559444,
    "lon": -86.931111
  },
  {
    "name": "Dolomite, AL",
    "lat": 33.465424,
    "lon": -86.956435
  },
  {
    "name": "Dora, AL",
    "lat": 33.734947,
    "lon": -87.040148
  },
  {
    "name": "Dothan, AL",
    "lat": 31.202888,
    "lon": -85.418036
  },
  {
    "name": "Double Springs, AL",
    "lat": 34.138682,
    "lon": -87.397431
  },
  {
    "name": "Douglas, AL",
    "lat": 34.173611,
    "lon": -86.323611
  },
  {
    "name": "Dozier, AL",
    "lat": 31.506614,
    "lon": -86.366315
  },
  {
    "name": "Duncanville, AL",
    "lat": 33.082815,
    "lon": -87.494977
  },
  {
    "name": "Dutton, AL",
    "lat": 34.604558,
    "lon": -85.906729
  },
  {
    "name": "East Tallassee, AL",
    "lat": 32.607222,
    "lon": -85.808056
  },
  {
    "name": "Eastaboga, AL",
    "lat": 33.603132,
    "lon": -85.96075
  },
  {
    "name": "Echola, AL",
    "lat": 33.316559,
    "lon": -87.807202
  },
  {
    "name": "Eclectic, AL",
    "lat": 32.65419,
    "lon": -86.031614
  },
  {
    "name": "Edwardsville, AL",
    "lat": 33.707222,
    "lon": -85.509167
  },
  {
    "name": "Eight Mile, AL",
    "lat": 30.795074,
    "lon": -88.182311
  },
  {
    "name": "Elba, AL",
    "lat": 31.41373,
    "lon": -86.077728
  },
  {
    "name": "Elberta, AL",
    "lat": 30.394239,
    "lon": -87.58896
  },
  {
    "name": "Eldridge, AL",
    "lat": 33.931546,
    "lon": -87.619397
  },
  {
    "name": "Elkmont, AL",
    "lat": 34.915241,
    "lon": -86.910452
  },
  {
    "name": "Elmore, AL",
    "lat": 32.545378,
    "lon": -86.316134
  },
  {
    "name": "Elrod, AL",
    "lat": 33.343678,
    "lon": -87.801429
  },
  {
    "name": "Emelle, AL",
    "lat": 32.754963,
    "lon": -88.305747
  },
  {
    "name": "Empire, AL",
    "lat": 33.825589,
    "lon": -87.016139
  },
  {
    "name": "Enterprise, AL",
    "lat": 31.340789,
    "lon": -85.842111
  },
  {
    "name": "Epes, AL",
    "lat": 32.763371,
    "lon": -88.161443
  },
  {
    "name": "Equality, AL",
    "lat": 32.813908,
    "lon": -86.105064
  },
  {
    "name": "Estillfork, AL",
    "lat": 34.913017,
    "lon": -86.171571
  },
  {
    "name": "Ethelsville, AL",
    "lat": 33.386816,
    "lon": -88.221987
  },
  {
    "name": "Eufaula, AL",
    "lat": 31.905063,
    "lon": -85.165605
  },
  {
    "name": "Eutaw, AL",
    "lat": 32.888871,
    "lon": -87.930297
  },
  {
    "name": "Eva, AL",
    "lat": 34.347778,
    "lon": -86.704427
  },
  {
    "name": "Excel, AL",
    "lat": 31.427778,
    "lon": -87.341389
  },
  {
    "name": "Fackler, AL",
    "lat": 34.82589,
    "lon": -85.984648
  },
  {
    "name": "Fairfield, AL",
    "lat": 33.473494,
    "lon": -86.918262
  },
  {
    "name": "Fairhope, AL",
    "lat": 30.50116,
    "lon": -87.883546
  },
  {
    "name": "Falkville, AL",
    "lat": 34.347653,
    "lon": -86.913086
  },
  {
    "name": "Faunsdale, AL",
    "lat": 32.423259,
    "lon": -87.618079
  },
  {
    "name": "Fayette, AL",
    "lat": 33.697397,
    "lon": -87.834647
  },
  {
    "name": "Fitzpatrick, AL",
    "lat": 32.151607,
    "lon": -85.888329
  },
  {
    "name": "Five Points, AL",
    "lat": 33.042408,
    "lon": -85.324264
  },
  {
    "name": "Flat Rock, AL",
    "lat": 34.807598,
    "lon": -85.708372
  },
  {
    "name": "Flomaton, AL",
    "lat": 31.040233,
    "lon": -87.266365
  },
  {
    "name": "Florala, AL",
    "lat": 31.017194,
    "lon": -86.338528
  },
  {
    "name": "Florence, AL",
    "lat": 34.830547,
    "lon": -87.655985
  },
  {
    "name": "Foley, AL",
    "lat": 30.400664,
    "lon": -87.685737
  },
  {
    "name": "Forest Home, AL",
    "lat": 31.85318,
    "lon": -86.786377
  },
  {
    "name": "Forkland, AL",
    "lat": 32.644661,
    "lon": -87.881676
  },
  {
    "name": "Fort Davis, AL",
    "lat": 32.28945,
    "lon": -85.700688
  },
  {
    "name": "Fort Deposit, AL",
    "lat": 31.995979,
    "lon": -86.576142
  },
  {
    "name": "Fort Mitchell, AL",
    "lat": 32.341389,
    "lon": -85.021667
  },
  {
    "name": "Fort Payne, AL",
    "lat": 34.436792,
    "lon": -85.712394
  },
  {
    "name": "Fort Rucker, AL",
    "lat": 31.348011,
    "lon": -85.721374
  },
  {
    "name": "Fosters, AL",
    "lat": 33.135859,
    "lon": -87.735688
  },
  {
    "name": "Franklin, AL",
    "lat": 31.723815,
    "lon": -87.441237
  },
  {
    "name": "Frankville, AL",
    "lat": 31.64684,
    "lon": -88.133185
  },
  {
    "name": "Frisco City, AL",
    "lat": 31.423478,
    "lon": -87.381744
  },
  {
    "name": "Fruitdale, AL",
    "lat": 31.348843,
    "lon": -88.376597
  },
  {
    "name": "Fruithurst, AL",
    "lat": 33.771732,
    "lon": -85.43814
  },
  {
    "name": "Fulton, AL",
    "lat": 31.790947,
    "lon": -87.708065
  },
  {
    "name": "Fultondale, AL",
    "lat": 33.611283,
    "lon": -86.813614
  },
  {
    "name": "Furman, AL",
    "lat": 32.006667,
    "lon": -86.966944
  },
  {
    "name": "Fyffe, AL",
    "lat": 34.437284,
    "lon": -85.928849
  },
  {
    "name": "Gadsden, AL",
    "lat": 33.997248,
    "lon": -86.010279
  },
  {
    "name": "Gainestown, AL",
    "lat": 31.425822,
    "lon": -87.682176
  },
  {
    "name": "Gainesville, AL",
    "lat": 32.908364,
    "lon": -88.271558
  },
  {
    "name": "Gallant, AL",
    "lat": 33.997586,
    "lon": -86.234606
  },
  {
    "name": "Gallion, AL",
    "lat": 32.529771,
    "lon": -87.698542
  },
  {
    "name": "Gantt, AL",
    "lat": 31.416909,
    "lon": -86.419836
  },
  {
    "name": "Garden City, AL",
    "lat": 34.014444,
    "lon": -86.746944
  },
  {
    "name": "Gardendale, AL",
    "lat": 33.71891,
    "lon": -86.822481
  },
  {
    "name": "Gaylesville, AL",
    "lat": 34.357324,
    "lon": -85.558893
  },
  {
    "name": "Geneva, AL",
    "lat": 31.041445,
    "lon": -85.884748
  },
  {
    "name": "Georgiana, AL",
    "lat": 31.628662,
    "lon": -86.733965
  },
  {
    "name": "Geraldine, AL",
    "lat": 34.343864,
    "lon": -86.040393
  },
  {
    "name": "Gilbertown, AL",
    "lat": 31.866602,
    "lon": -88.326514
  },
  {
    "name": "Glen Allen, AL",
    "lat": 33.899444,
    "lon": -87.730278
  },
  {
    "name": "Glenwood, AL",
    "lat": 31.664143,
    "lon": -86.170972
  },
  {
    "name": "Goodsprings, AL",
    "lat": 33.668889,
    "lon": -87.231667
  },
  {
    "name": "Goodwater, AL",
    "lat": 33.074642,
    "lon": -86.078149
  },
  {
    "name": "Goodway, AL",
    "lat": 31.336667,
    "lon": -87.425833
  },
  {
    "name": "Gordo, AL",
    "lat": 33.346917,
    "lon": -87.900504
  },
  {
    "name": "Gordon, AL",
    "lat": 31.10019,
    "lon": -85.123412
  },
  {
    "name": "Goshen, AL",
    "lat": 31.82497,
    "lon": -86.104851
  },
  {
    "name": "Grady, AL",
    "lat": 32.019397,
    "lon": -86.129246
  },
  {
    "name": "Graham, AL",
    "lat": 33.462976,
    "lon": -85.334034
  },
  {
    "name": "Grand Bay, AL",
    "lat": 30.498288,
    "lon": -88.32825
  },
  {
    "name": "Grant, AL",
    "lat": 34.495902,
    "lon": -86.259041
  },
  {
    "name": "Graysville, AL",
    "lat": 33.63356,
    "lon": -86.948221
  },
  {
    "name": "Green Pond, AL",
    "lat": 33.225,
    "lon": -87.126389
  },
  {
    "name": "Greensboro, AL",
    "lat": 32.716721,
    "lon": -87.590494
  },
  {
    "name": "Greenville, AL",
    "lat": 31.810036,
    "lon": -86.622919
  },
  {
    "name": "Grove Hill, AL",
    "lat": 31.675502,
    "lon": -87.763571
  },
  {
    "name": "Groveoak, AL",
    "lat": 34.435874,
    "lon": -86.040023
  },
  {
    "name": "Guin, AL",
    "lat": 33.967624,
    "lon": -87.90238
  },
  {
    "name": "Gulf Shores, AL",
    "lat": 30.268954,
    "lon": -87.712795
  },
  {
    "name": "Guntersville, AL",
    "lat": 34.32193,
    "lon": -86.305463
  },
  {
    "name": "Gurley, AL",
    "lat": 34.713964,
    "lon": -86.394028
  },
  {
    "name": "Hackleburg, AL",
    "lat": 34.267803,
    "lon": -87.860762
  },
  {
    "name": "Haleyville, AL",
    "lat": 34.231423,
    "lon": -87.593811
  },
  {
    "name": "Hamilton, AL",
    "lat": 34.153413,
    "lon": -88.008521
  },
  {
    "name": "Hanceville, AL",
    "lat": 34.051569,
    "lon": -86.784844
  },
  {
    "name": "Hardaway, AL",
    "lat": 32.312939,
    "lon": -85.883837
  },
  {
    "name": "Harpersville, AL",
    "lat": 33.36746,
    "lon": -86.429441
  },
  {
    "name": "Hartford, AL",
    "lat": 31.08598,
    "lon": -85.719204
  },
  {
    "name": "Hartselle, AL",
    "lat": 34.448206,
    "lon": -86.924235
  },
  {
    "name": "Harvest, AL",
    "lat": 34.82732,
    "lon": -86.749929
  },
  {
    "name": "Hatchechubbee, AL",
    "lat": 32.284531,
    "lon": -85.302882
  },
  {
    "name": "Hayden, AL",
    "lat": 33.885806,
    "lon": -86.81767
  },
  {
    "name": "Hayneville, AL",
    "lat": 32.195707,
    "lon": -86.654994
  },
  {
    "name": "Hazel Green, AL",
    "lat": 34.949627,
    "lon": -86.593484
  },
  {
    "name": "Headland, AL",
    "lat": 31.353406,
    "lon": -85.332277
  },
  {
    "name": "Heflin, AL",
    "lat": 33.611515,
    "lon": -85.588471
  },
  {
    "name": "Helena, AL",
    "lat": 33.316978,
    "lon": -86.813786
  },
  {
    "name": "Henagar, AL",
    "lat": 34.618604,
    "lon": -85.727381
  },
  {
    "name": "Higdon, AL",
    "lat": 34.873247,
    "lon": -85.622507
  },
  {
    "name": "Highland Home, AL",
    "lat": 31.928292,
    "lon": -86.297111
  },
  {
    "name": "Hillsboro, AL",
    "lat": 34.64763,
    "lon": -87.180379
  },
  {
    "name": "Hodges, AL",
    "lat": 34.341664,
    "lon": -87.959023
  },
  {
    "name": "Hollins, AL",
    "lat": 33.1175,
    "lon": -86.144444
  },
  {
    "name": "Holly Pond, AL",
    "lat": 34.190085,
    "lon": -86.617441
  },
  {
    "name": "Hollytree, AL",
    "lat": 34.798979,
    "lon": -86.233627
  },
  {
    "name": "Hollywood, AL",
    "lat": 34.730428,
    "lon": -85.953173
  },
  {
    "name": "Holy Trinity, AL",
    "lat": 32.222222,
    "lon": -85.005278
  },
  {
    "name": "Honoraville, AL",
    "lat": 31.878397,
    "lon": -86.398064
  },
  {
    "name": "Hope Hull, AL",
    "lat": 32.224256,
    "lon": -86.393189
  },
  {
    "name": "Horton, AL",
    "lat": 34.190033,
    "lon": -86.317318
  },
  {
    "name": "Houston, AL",
    "lat": 34.118042,
    "lon": -87.26183
  },
  {
    "name": "Huntsville, AL",
    "lat": 34.726866,
    "lon": -86.567318
  },
  {
    "name": "Hurtsboro, AL",
    "lat": 32.245429,
    "lon": -85.395903
  },
  {
    "name": "Huxford, AL",
    "lat": 31.22,
    "lon": -87.461944
  },
  {
    "name": "Ider, AL",
    "lat": 34.735059,
    "lon": -85.641577
  },
  {
    "name": "Irvington, AL",
    "lat": 30.480241,
    "lon": -88.239563
  },
  {
    "name": "Jachin, AL",
    "lat": 32.244174,
    "lon": -88.233356
  },
  {
    "name": "Jack, AL",
    "lat": 31.552392,
    "lon": -86.043083
  },
  {
    "name": "Jackson, AL",
    "lat": 31.513098,
    "lon": -87.867192
  },
  {
    "name": "Jacksons Gap, AL",
    "lat": 32.879698,
    "lon": -85.848662
  },
  {
    "name": "Jacksonville, AL",
    "lat": 33.830966,
    "lon": -85.77518
  },
  {
    "name": "Jasper, AL",
    "lat": 33.871672,
    "lon": -87.249144
  },
  {
    "name": "Jefferson, AL",
    "lat": 32.386667,
    "lon": -87.898056
  },
  {
    "name": "Jemison, AL",
    "lat": 32.980539,
    "lon": -86.718052
  },
  {
    "name": "Jones, AL",
    "lat": 32.608515,
    "lon": -86.889266
  },
  {
    "name": "Joppa, AL",
    "lat": 34.283739,
    "lon": -86.551939
  },
  {
    "name": "Kansas, AL",
    "lat": 33.901667,
    "lon": -87.551944
  },
  {
    "name": "Kellerman, AL",
    "lat": 33.340556,
    "lon": -87.304722
  },
  {
    "name": "Kellyton, AL",
    "lat": 32.979068,
    "lon": -86.048397
  },
  {
    "name": "Kennedy, AL",
    "lat": 33.574964,
    "lon": -88.05172
  },
  {
    "name": "Kent, AL",
    "lat": 32.618889,
    "lon": -85.948611
  },
  {
    "name": "Killen, AL",
    "lat": 34.901632,
    "lon": -87.508185
  },
  {
    "name": "Kimberly, AL",
    "lat": 33.768355,
    "lon": -86.808417
  },
  {
    "name": "Kinston, AL",
    "lat": 31.262118,
    "lon": -86.069532
  },
  {
    "name": "Knoxville, AL",
    "lat": 32.982423,
    "lon": -87.791855
  },
  {
    "name": "Laceys Spring, AL",
    "lat": 34.499647,
    "lon": -86.612869
  },
  {
    "name": "Lafayette, AL",
    "lat": 32.925237,
    "lon": -85.442563
  },
  {
    "name": "Lanett, AL",
    "lat": 32.861609,
    "lon": -85.21608
  },
  {
    "name": "Langston, AL",
    "lat": 34.497831,
    "lon": -86.10563
  },
  {
    "name": "Lapine, AL",
    "lat": 31.985423,
    "lon": -86.278534
  },
  {
    "name": "Lawley, AL",
    "lat": 32.864558,
    "lon": -86.956708
  },
  {
    "name": "Leeds, AL",
    "lat": 33.528333,
    "lon": -86.574824
  },
  {
    "name": "Leesburg, AL",
    "lat": 34.191083,
    "lon": -85.77051
  },
  {
    "name": "Leighton, AL",
    "lat": 34.710982,
    "lon": -87.522133
  },
  {
    "name": "Lenox, AL",
    "lat": 31.327261,
    "lon": -87.19671
  },
  {
    "name": "Leroy, AL",
    "lat": 31.491021,
    "lon": -87.968672
  },
  {
    "name": "Lester, AL",
    "lat": 34.918364,
    "lon": -87.143396
  },
  {
    "name": "Letohatchee, AL",
    "lat": 32.086199,
    "lon": -86.488013
  },
  {
    "name": "Lexington, AL",
    "lat": 34.955924,
    "lon": -87.393519
  },
  {
    "name": "Lillian, AL",
    "lat": 30.39724,
    "lon": -87.474452
  },
  {
    "name": "Lincoln, AL",
    "lat": 33.605913,
    "lon": -86.111152
  },
  {
    "name": "Linden, AL",
    "lat": 32.305343,
    "lon": -87.795358
  },
  {
    "name": "Lineville, AL",
    "lat": 33.328613,
    "lon": -85.734609
  },
  {
    "name": "Lisman, AL",
    "lat": 32.217722,
    "lon": -88.323419
  },
  {
    "name": "Little River, AL",
    "lat": 31.22459,
    "lon": -87.754796
  },
  {
    "name": "Livingston, AL",
    "lat": 32.588509,
    "lon": -88.173592
  },
  {
    "name": "Loachapoka, AL",
    "lat": 32.604167,
    "lon": -85.593333
  },
  {
    "name": "Lockhart, AL",
    "lat": 31.010278,
    "lon": -86.349722
  },
  {
    "name": "Locust Fork, AL",
    "lat": 33.9075,
    "lon": -86.615278
  },
  {
    "name": "Logan, AL",
    "lat": 34.184079,
    "lon": -87.038115
  },
  {
    "name": "Louisville, AL",
    "lat": 31.794262,
    "lon": -85.558062
  },
  {
    "name": "Lower Peach Tree, AL",
    "lat": 31.850365,
    "lon": -87.568224
  },
  {
    "name": "Lowndesboro, AL",
    "lat": 32.300292,
    "lon": -86.609868
  },
  {
    "name": "Loxley, AL",
    "lat": 30.617964,
    "lon": -87.75624
  },
  {
    "name": "Luverne, AL",
    "lat": 31.70739,
    "lon": -86.256601
  },
  {
    "name": "Lynn, AL",
    "lat": 34.052984,
    "lon": -87.539814
  },
  {
    "name": "Madison, AL",
    "lat": 34.6578,
    "lon": -86.8056
  },
  {
    "name": "Madison, AL",
    "lat": 34.7837,
    "lon": -86.7486
  },
  {
    "name": "Magnolia, AL",
    "lat": 32.141931,
    "lon": -87.699815
  },
  {
    "name": "Magnolia Springs, AL",
    "lat": 30.394497,
    "lon": -87.785781
  },
  {
    "name": "Malcolm, AL",
    "lat": 31.191111,
    "lon": -88.0075
  },
  {
    "name": "Malvern, AL",
    "lat": 31.157528,
    "lon": -85.522327
  },
  {
    "name": "Maplesville, AL",
    "lat": 32.804507,
    "lon": -86.871704
  },
  {
    "name": "Marbury, AL",
    "lat": 32.639373,
    "lon": -86.510138
  },
  {
    "name": "Margaret, AL",
    "lat": 33.686111,
    "lon": -86.475
  },
  {
    "name": "Marion, AL",
    "lat": 32.646301,
    "lon": -87.331437
  },
  {
    "name": "Marion Junction, AL",
    "lat": 32.426589,
    "lon": -87.270181
  },
  {
    "name": "Mathews, AL",
    "lat": 32.128288,
    "lon": -86.041262
  },
  {
    "name": "Maylene, AL",
    "lat": 33.231694,
    "lon": -86.872745
  },
  {
    "name": "Mc Calla, AL",
    "lat": 33.284546,
    "lon": -87.102379
  },
  {
    "name": "Mc Intosh, AL",
    "lat": 31.236108,
    "lon": -88.051102
  },
  {
    "name": "Mc Kenzie, AL",
    "lat": 31.54495,
    "lon": -86.735615
  },
  {
    "name": "Mc Shan, AL",
    "lat": 33.381667,
    "lon": -88.143333
  },
  {
    "name": "Mc Williams, AL",
    "lat": 31.845556,
    "lon": -87.088333
  },
  {
    "name": "Megargel, AL",
    "lat": 31.379722,
    "lon": -87.428333
  },
  {
    "name": "Melvin, AL",
    "lat": 31.930278,
    "lon": -88.458889
  },
  {
    "name": "Mentone, AL",
    "lat": 34.587236,
    "lon": -85.577728
  },
  {
    "name": "Meridianville, AL",
    "lat": 34.861779,
    "lon": -86.578879
  },
  {
    "name": "Mexia, AL",
    "lat": 31.506944,
    "lon": -87.388333
  },
  {
    "name": "Midland City, AL",
    "lat": 31.36716,
    "lon": -85.513033
  },
  {
    "name": "Midway, AL",
    "lat": 32.09552,
    "lon": -85.531523
  },
  {
    "name": "Millbrook, AL",
    "lat": 32.499485,
    "lon": -86.364125
  },
  {
    "name": "Millerville, AL",
    "lat": 33.158959,
    "lon": -85.969001
  },
  {
    "name": "Millport, AL",
    "lat": 33.54013,
    "lon": -88.200003
  },
  {
    "name": "Millry, AL",
    "lat": 31.626871,
    "lon": -88.355872
  },
  {
    "name": "Minter, AL",
    "lat": 32.095387,
    "lon": -86.92497
  },
  {
    "name": "Mobile, AL",
    "lat": 30.6959,
    "lon": -88.0434
  },
  {
    "name": "Monroeville, AL",
    "lat": 31.51533,
    "lon": -87.340993
  },
  {
    "name": "Montevallo, AL",
    "lat": 33.124765,
    "lon": -86.862228
  },
  {
    "name": "Montgomery, AL",
    "lat": 32.3743,
    "lon": -86.3118
  },
  {
    "name": "Montrose, AL",
    "lat": 30.565556,
    "lon": -87.901667
  },
  {
    "name": "Moody, AL",
    "lat": 33.584132,
    "lon": -86.51557
  },
  {
    "name": "Mooresville, AL",
    "lat": 34.628333,
    "lon": -86.880278
  },
  {
    "name": "Morris, AL",
    "lat": 33.739172,
    "lon": -86.772551
  },
  {
    "name": "Morvin, AL",
    "lat": 31.967305,
    "lon": -87.972897
  },
  {
    "name": "Moulton, AL",
    "lat": 34.505836,
    "lon": -87.222385
  },
  {
    "name": "Moundville, AL",
    "lat": 32.978853,
    "lon": -87.615134
  },
  {
    "name": "Mount Hope, AL",
    "lat": 34.462969,
    "lon": -87.451453
  },
  {
    "name": "Mount Meigs, AL",
    "lat": 32.3625,
    "lon": -86.101944
  },
  {
    "name": "Mount Olive, AL",
    "lat": 33.67678,
    "lon": -86.87171
  },
  {
    "name": "Mount Vernon, AL",
    "lat": 31.097375,
    "lon": -88.035044
  },
  {
    "name": "Mulga, AL",
    "lat": 33.540696,
    "lon": -87.043998
  },
  {
    "name": "Munford, AL",
    "lat": 33.540987,
    "lon": -85.936322
  },
  {
    "name": "Muscadine, AL",
    "lat": 33.752913,
    "lon": -85.378907
  },
  {
    "name": "Muscle Shoals, AL",
    "lat": 34.756136,
    "lon": -87.630443
  },
  {
    "name": "Myrtlewood, AL",
    "lat": 32.250278,
    "lon": -87.949722
  },
  {
    "name": "Nanafalia, AL",
    "lat": 32.112778,
    "lon": -87.988056
  },
  {
    "name": "Natural Bridge, AL",
    "lat": 34.093333,
    "lon": -87.601944
  },
  {
    "name": "Nauvoo, AL",
    "lat": 33.929859,
    "lon": -87.432449
  },
  {
    "name": "Needham, AL",
    "lat": 32.012165,
    "lon": -88.345798
  },
  {
    "name": "New Brockton, AL",
    "lat": 31.36898,
    "lon": -85.940386
  },
  {
    "name": "New Castle, AL",
    "lat": 33.648889,
    "lon": -86.768611
  },
  {
    "name": "New Hope, AL",
    "lat": 34.549445,
    "lon": -86.3961
  },
  {
    "name": "New Market, AL",
    "lat": 34.899991,
    "lon": -86.448742
  },
  {
    "name": "Newbern, AL",
    "lat": 32.551465,
    "lon": -87.561472
  },
  {
    "name": "Newton, AL",
    "lat": 31.331064,
    "lon": -85.599229
  },
  {
    "name": "Newville, AL",
    "lat": 31.440295,
    "lon": -85.328741
  },
  {
    "name": "Normal, AL",
    "lat": 34.788889,
    "lon": -86.571944
  },
  {
    "name": "Northport, AL",
    "lat": 33.2605,
    "lon": -87.5872
  },
  {
    "name": "Notasulga, AL",
    "lat": 32.543727,
    "lon": -85.68707
  },
  {
    "name": "Oak Hill, AL",
    "lat": 31.925,
    "lon": -87.0825
  },
  {
    "name": "Oakman, AL",
    "lat": 33.700174,
    "lon": -87.368574
  },
  {
    "name": "Odenville, AL",
    "lat": 33.675611,
    "lon": -86.408952
  },
  {
    "name": "Ohatchee, AL",
    "lat": 33.778779,
    "lon": -86.025357
  },
  {
    "name": "Oneonta, AL",
    "lat": 33.925858,
    "lon": -86.474118
  },
  {
    "name": "Opelika, AL",
    "lat": 32.627771,
    "lon": -85.358629
  },
  {
    "name": "Opp, AL",
    "lat": 31.279861,
    "lon": -86.257105
  },
  {
    "name": "Orange Beach, AL",
    "lat": 30.290596,
    "lon": -87.555888
  },
  {
    "name": "Orrville, AL",
    "lat": 32.294859,
    "lon": -87.221368
  },
  {
    "name": "Owens Cross Roads, AL",
    "lat": 34.612859,
    "lon": -86.466577
  },
  {
    "name": "Oxford, AL",
    "lat": 33.596829,
    "lon": -85.83347
  },
  {
    "name": "Ozark, AL",
    "lat": 31.439069,
    "lon": -85.643629
  },
  {
    "name": "Paint Rock, AL",
    "lat": 34.667122,
    "lon": -86.332562
  },
  {
    "name": "Palmerdale, AL",
    "lat": 33.738611,
    "lon": -86.646111
  },
  {
    "name": "Panola, AL",
    "lat": 32.950556,
    "lon": -88.268889
  },
  {
    "name": "Pansey, AL",
    "lat": 31.131778,
    "lon": -85.238549
  },
  {
    "name": "Parrish, AL",
    "lat": 33.721307,
    "lon": -87.265773
  },
  {
    "name": "Pelham, AL",
    "lat": 33.31046,
    "lon": -86.806176
  },
  {
    "name": "Pell City, AL",
    "lat": 33.597889,
    "lon": -86.343151
  },
  {
    "name": "Pennington, AL",
    "lat": 32.226245,
    "lon": -88.0931
  },
  {
    "name": "Perdido, AL",
    "lat": 30.98058,
    "lon": -87.628374
  },
  {
    "name": "Perdue Hill, AL",
    "lat": 31.513889,
    "lon": -87.493333
  },
  {
    "name": "Perote, AL",
    "lat": 32.003459,
    "lon": -85.74773
  },
  {
    "name": "Peterman, AL",
    "lat": 31.589953,
    "lon": -87.259984
  },
  {
    "name": "Peterson, AL",
    "lat": 33.2325,
    "lon": -87.423611
  },
  {
    "name": "Petrey, AL",
    "lat": 31.848611,
    "lon": -86.207778
  },
  {
    "name": "Phenix City, AL",
    "lat": 32.484,
    "lon": -85.0911
  },
  {
    "name": "Phenix City, AL",
    "lat": 32.407816,
    "lon": -85.095082
  },
  {
    "name": "Phil Campbell, AL",
    "lat": 34.347018,
    "lon": -87.715431
  },
  {
    "name": "Piedmont, AL",
    "lat": 33.838946,
    "lon": -85.645997
  },
  {
    "name": "Pike Road, AL",
    "lat": 32.335705,
    "lon": -86.09589
  },
  {
    "name": "Pinckard, AL",
    "lat": 31.311389,
    "lon": -85.553056
  },
  {
    "name": "Pine Apple, AL",
    "lat": 31.926522,
    "lon": -87.004667
  },
  {
    "name": "Pine Hill, AL",
    "lat": 31.973546,
    "lon": -87.577086
  },
  {
    "name": "Pine Level, AL",
    "lat": 32.067778,
    "lon": -86.059722
  },
  {
    "name": "Pinson, AL",
    "lat": 33.708131,
    "lon": -86.656542
  },
  {
    "name": "Pisgah, AL",
    "lat": 34.688601,
    "lon": -85.803044
  },
  {
    "name": "Pittsview, AL",
    "lat": 32.173346,
    "lon": -85.131248
  },
  {
    "name": "Plantersville, AL",
    "lat": 32.617608,
    "lon": -86.947531
  },
  {
    "name": "Pleasant Grove, AL",
    "lat": 33.488336,
    "lon": -86.976586
  },
  {
    "name": "Point Clear, AL",
    "lat": 30.473889,
    "lon": -87.919167
  },
  {
    "name": "Prattville, AL",
    "lat": 32.478695,
    "lon": -86.42997
  },
  {
    "name": "Princeton, AL",
    "lat": 34.840217,
    "lon": -86.250068
  },
  {
    "name": "Quinton, AL",
    "lat": 33.656065,
    "lon": -87.10066
  },
  {
    "name": "Ragland, AL",
    "lat": 33.736677,
    "lon": -86.1619
  },
  {
    "name": "Rainsville, AL",
    "lat": 34.498884,
    "lon": -85.844605
  },
  {
    "name": "Ralph, AL",
    "lat": 33.062868,
    "lon": -87.744984
  },
  {
    "name": "Ramer, AL",
    "lat": 32.067745,
    "lon": -86.246329
  },
  {
    "name": "Ranburne, AL",
    "lat": 33.561627,
    "lon": -85.378604
  },
  {
    "name": "Randolph, AL",
    "lat": 32.888834,
    "lon": -86.90701
  },
  {
    "name": "Range, AL",
    "lat": 31.30169,
    "lon": -87.319739
  },
  {
    "name": "Red Bay, AL",
    "lat": 34.451259,
    "lon": -88.112914
  },
  {
    "name": "Red Level, AL",
    "lat": 31.439931,
    "lon": -86.61209
  },
  {
    "name": "Reform, AL",
    "lat": 33.395945,
    "lon": -88.020277
  },
  {
    "name": "Remlap, AL",
    "lat": 33.846204,
    "lon": -86.641662
  },
  {
    "name": "Repton, AL",
    "lat": 31.425569,
    "lon": -87.172039
  },
  {
    "name": "River Falls, AL",
    "lat": 31.352778,
    "lon": -86.539167
  },
  {
    "name": "Riverside, AL",
    "lat": 33.608832,
    "lon": -86.198341
  },
  {
    "name": "Roanoke, AL",
    "lat": 33.156443,
    "lon": -85.357854
  },
  {
    "name": "Robertsdale, AL",
    "lat": 30.561608,
    "lon": -87.637268
  },
  {
    "name": "Rockford, AL",
    "lat": 32.877957,
    "lon": -86.240006
  },
  {
    "name": "Rogersville, AL",
    "lat": 34.849544,
    "lon": -87.323671
  },
  {
    "name": "Russellville, AL",
    "lat": 34.506568,
    "lon": -87.725726
  },
  {
    "name": "Rutledge, AL",
    "lat": 31.755867,
    "lon": -86.348464
  },
  {
    "name": "Ryland, AL",
    "lat": 34.769722,
    "lon": -86.480833
  },
  {
    "name": "Safford, AL",
    "lat": 32.300242,
    "lon": -87.369345
  },
  {
    "name": "Saginaw, AL",
    "lat": 33.216111,
    "lon": -86.791944
  },
  {
    "name": "Saint Elmo, AL",
    "lat": 30.503333,
    "lon": -88.254167
  },
  {
    "name": "Saint Stephens, AL",
    "lat": 31.533028,
    "lon": -88.052094
  },
  {
    "name": "Salem, AL",
    "lat": 32.621157,
    "lon": -85.183966
  },
  {
    "name": "Samantha, AL",
    "lat": 33.422222,
    "lon": -87.605278
  },
  {
    "name": "Samson, AL",
    "lat": 31.104918,
    "lon": -86.067416
  },
  {
    "name": "Saraland, AL",
    "lat": 30.833197,
    "lon": -88.093387
  },
  {
    "name": "Sardis, AL",
    "lat": 32.284358,
    "lon": -86.991959
  },
  {
    "name": "Satsuma, AL",
    "lat": 30.851628,
    "lon": -88.053312
  },
  {
    "name": "Sawyerville, AL",
    "lat": 32.757796,
    "lon": -87.740201
  },
  {
    "name": "Sayre, AL",
    "lat": 33.712222,
    "lon": -86.974444
  },
  {
    "name": "Scottsboro, AL",
    "lat": 34.67227,
    "lon": -86.051336
  },
  {
    "name": "Seale, AL",
    "lat": 32.305339,
    "lon": -85.167733
  },
  {
    "name": "Section, AL",
    "lat": 34.543275,
    "lon": -85.994002
  },
  {
    "name": "Selma, AL",
    "lat": 32.419719,
    "lon": -87.024527
  },
  {
    "name": "Seminole, AL",
    "lat": 30.504806,
    "lon": -87.465938
  },
  {
    "name": "Semmes, AL",
    "lat": 30.754408,
    "lon": -88.266705
  },
  {
    "name": "Shannon, AL",
    "lat": 33.405278,
    "lon": -86.871944
  },
  {
    "name": "Sheffield, AL",
    "lat": 34.757829,
    "lon": -87.697057
  },
  {
    "name": "Shelby, AL",
    "lat": 33.078483,
    "lon": -86.553606
  },
  {
    "name": "Shorter, AL",
    "lat": 32.383585,
    "lon": -85.91616
  },
  {
    "name": "Shorterville, AL",
    "lat": 31.625627,
    "lon": -85.14584
  },
  {
    "name": "Silas, AL",
    "lat": 31.766754,
    "lon": -88.309149
  },
  {
    "name": "Siluria, AL",
    "lat": 33.244167,
    "lon": -86.816389
  },
  {
    "name": "Silverhill, AL",
    "lat": 30.522237,
    "lon": -87.745676
  },
  {
    "name": "Sipsey, AL",
    "lat": 33.824722,
    "lon": -87.086111
  },
  {
    "name": "Skipperville, AL",
    "lat": 31.551588,
    "lon": -85.549578
  },
  {
    "name": "Slocomb, AL",
    "lat": 31.095558,
    "lon": -85.582954
  },
  {
    "name": "Smiths Station, AL",
    "lat": 32.520072,
    "lon": -85.100027
  },
  {
    "name": "Somerville, AL",
    "lat": 34.499548,
    "lon": -86.800931
  },
  {
    "name": "Spanish Fort, AL",
    "lat": 30.695852,
    "lon": -87.88668
  },
  {
    "name": "Spring Garden, AL",
    "lat": 33.972778,
    "lon": -85.553889
  },
  {
    "name": "Springville, AL",
    "lat": 33.738647,
    "lon": -86.439407
  },
  {
    "name": "Spruce Pine, AL",
    "lat": 34.384796,
    "lon": -87.712149
  },
  {
    "name": "Stanton, AL",
    "lat": 32.709631,
    "lon": -86.886848
  },
  {
    "name": "Stapleton, AL",
    "lat": 30.7425,
    "lon": -87.793333
  },
  {
    "name": "Steele, AL",
    "lat": 33.941679,
    "lon": -86.228929
  },
  {
    "name": "Sterrett, AL",
    "lat": 33.446103,
    "lon": -86.491732
  },
  {
    "name": "Stevenson, AL",
    "lat": 34.876885,
    "lon": -85.850803
  },
  {
    "name": "Stockton, AL",
    "lat": 31.01293,
    "lon": -87.863323
  },
  {
    "name": "Sulligent, AL",
    "lat": 33.8549,
    "lon": -88.150774
  },
  {
    "name": "Sumiton, AL",
    "lat": 33.768005,
    "lon": -87.044545
  },
  {
    "name": "Summerdale, AL",
    "lat": 30.475225,
    "lon": -87.699183
  },
  {
    "name": "Sunflower, AL",
    "lat": 31.382222,
    "lon": -88.008333
  },
  {
    "name": "Sweet Water, AL",
    "lat": 32.077272,
    "lon": -87.922755
  },
  {
    "name": "Sycamore, AL",
    "lat": 33.251111,
    "lon": -86.2025
  },
  {
    "name": "Sylacauga, AL",
    "lat": 33.171675,
    "lon": -86.271257
  },
  {
    "name": "Sylvania, AL",
    "lat": 34.558962,
    "lon": -85.792128
  },
  {
    "name": "Talladega, AL",
    "lat": 33.435445,
    "lon": -86.113352
  },
  {
    "name": "Tallassee, AL",
    "lat": 32.550997,
    "lon": -85.89781
  },
  {
    "name": "Tanner, AL",
    "lat": 34.713037,
    "lon": -86.989152
  },
  {
    "name": "Theodore, AL",
    "lat": 30.544374,
    "lon": -88.180748
  },
  {
    "name": "Thomaston, AL",
    "lat": 32.253776,
    "lon": -87.597438
  },
  {
    "name": "Thomasville, AL",
    "lat": 31.906728,
    "lon": -87.759842
  },
  {
    "name": "Thorsby, AL",
    "lat": 32.923755,
    "lon": -86.746724
  },
  {
    "name": "Tibbie, AL",
    "lat": 31.373742,
    "lon": -88.266828
  },
  {
    "name": "Titus, AL",
    "lat": 32.690019,
    "lon": -86.239334
  },
  {
    "name": "Toney, AL",
    "lat": 34.911644,
    "lon": -86.699951
  },
  {
    "name": "Town Creek, AL",
    "lat": 34.649138,
    "lon": -87.426195
  },
  {
    "name": "Townley, AL",
    "lat": 33.84702,
    "lon": -87.437248
  },
  {
    "name": "Toxey, AL",
    "lat": 31.93153,
    "lon": -88.31794
  },
  {
    "name": "Trafford, AL",
    "lat": 33.819038,
    "lon": -86.743414
  },
  {
    "name": "Trenton, AL",
    "lat": 34.740065,
    "lon": -86.291264
  },
  {
    "name": "Trinity, AL",
    "lat": 34.591771,
    "lon": -87.09127
  },
  {
    "name": "Troy, AL",
    "lat": 31.7567,
    "lon": -85.9993
  },
  {
    "name": "Trussville, AL",
    "lat": 33.633932,
    "lon": -86.598068
  },
  {
    "name": "Tuscaloosa, AL",
    "lat": 33.196891,
    "lon": -87.562666
  },
  {
    "name": "Tuscumbia, AL",
    "lat": 34.687432,
    "lon": -87.683259
  },
  {
    "name": "Tuskegee, AL",
    "lat": 32.431623,
    "lon": -85.68606
  },
  {
    "name": "Tuskegee Institute, AL",
    "lat": 32.430278,
    "lon": -85.705278
  },
  {
    "name": "Tyler, AL",
    "lat": 32.281924,
    "lon": -86.859867
  },
  {
    "name": "Union Grove, AL",
    "lat": 34.409345,
    "lon": -86.462793
  },
  {
    "name": "Union Springs, AL",
    "lat": 32.166252,
    "lon": -85.678746
  },
  {
    "name": "Uniontown, AL",
    "lat": 32.446966,
    "lon": -87.493398
  },
  {
    "name": "Uriah, AL",
    "lat": 31.313467,
    "lon": -87.570518
  },
  {
    "name": "Valhermoso Springs, AL",
    "lat": 34.538145,
    "lon": -86.678
  },
  {
    "name": "Valley, AL",
    "lat": 32.811349,
    "lon": -85.174911
  },
  {
    "name": "Valley, AL",
    "lat": 32.820833,
    "lon": -85.170833
  },
  {
    "name": "Valley Head, AL",
    "lat": 34.5697,
    "lon": -85.627208
  },
  {
    "name": "Vance, AL",
    "lat": 33.17498,
    "lon": -87.257362
  },
  {
    "name": "Vandiver, AL",
    "lat": 33.480704,
    "lon": -86.501278
  },
  {
    "name": "Verbena, AL",
    "lat": 32.759565,
    "lon": -86.543753
  },
  {
    "name": "Vernon, AL",
    "lat": 33.761285,
    "lon": -88.097919
  },
  {
    "name": "Vina, AL",
    "lat": 34.37116,
    "lon": -88.077422
  },
  {
    "name": "Vincent, AL",
    "lat": 33.401049,
    "lon": -86.399425
  },
  {
    "name": "Vinegar Bend, AL",
    "lat": 31.25841,
    "lon": -88.386466
  },
  {
    "name": "Vinemont, AL",
    "lat": 34.262121,
    "lon": -86.912512
  },
  {
    "name": "Vredenburgh, AL",
    "lat": 31.73443,
    "lon": -87.416184
  },
  {
    "name": "Wadley, AL",
    "lat": 33.149192,
    "lon": -85.551344
  },
  {
    "name": "Wagarville, AL",
    "lat": 31.410205,
    "lon": -88.070519
  },
  {
    "name": "Walnut Grove, AL",
    "lat": 34.065556,
    "lon": -86.306389
  },
  {
    "name": "Ward, AL",
    "lat": 32.334063,
    "lon": -88.297114
  },
  {
    "name": "Warrior, AL",
    "lat": 33.852862,
    "lon": -86.819849
  },
  {
    "name": "Waterloo, AL",
    "lat": 34.93568,
    "lon": -87.962412
  },
  {
    "name": "Watson, AL",
    "lat": 33.633611,
    "lon": -86.879444
  },
  {
    "name": "Wattsville, AL",
    "lat": 33.681389,
    "lon": -86.279722
  },
  {
    "name": "Waverly, AL",
    "lat": 32.763167,
    "lon": -85.514372
  },
  {
    "name": "Weaver, AL",
    "lat": 33.756286,
    "lon": -85.810666
  },
  {
    "name": "Webb, AL",
    "lat": 31.265618,
    "lon": -85.254385
  },
  {
    "name": "Wedowee, AL",
    "lat": 33.301854,
    "lon": -85.473737
  },
  {
    "name": "Wellington, AL",
    "lat": 33.863843,
    "lon": -85.915325
  },
  {
    "name": "Weogufka, AL",
    "lat": 33.02381,
    "lon": -86.304203
  },
  {
    "name": "West Blocton, AL",
    "lat": 33.142431,
    "lon": -87.13694
  },
  {
    "name": "West Greene, AL",
    "lat": 32.923611,
    "lon": -88.085278
  },
  {
    "name": "Westover, AL",
    "lat": 33.349444,
    "lon": -86.535833
  },
  {
    "name": "Wetumpka, AL",
    "lat": 32.54509,
    "lon": -86.188039
  },
  {
    "name": "Whatley, AL",
    "lat": 31.639453,
    "lon": -87.656502
  },
  {
    "name": "Wilmer, AL",
    "lat": 30.813745,
    "lon": -88.333196
  },
  {
    "name": "Wilsonville, AL",
    "lat": 33.229255,
    "lon": -86.529894
  },
  {
    "name": "Wilton, AL",
    "lat": 33.078611,
    "lon": -86.881667
  },
  {
    "name": "Winfield, AL",
    "lat": 33.930256,
    "lon": -87.79716
  },
  {
    "name": "Wing, AL",
    "lat": 31.148127,
    "lon": -86.56119
  },
  {
    "name": "Woodland, AL",
    "lat": 33.355453,
    "lon": -85.353768
  },
  {
    "name": "Woodstock, AL",
    "lat": 33.169808,
    "lon": -87.163469
  },
  {
    "name": "Woodville, AL",
    "lat": 34.668927,
    "lon": -86.22961
  },
  {
    "name": "York, AL",
    "lat": 32.472765,
    "lon": -88.268304
  },
  {
    "name": "Adona, AR",
    "lat": 35.046956,
    "lon": -92.903325
  },
  {
    "name": "Alexander, AR",
    "lat": 34.631266,
    "lon": -92.472673
  },
  {
    "name": "Alicia, AR",
    "lat": 35.942327,
    "lon": -91.081003
  },
  {
    "name": "Alix, AR",
    "lat": 35.430767,
    "lon": -93.726416
  },
  {
    "name": "Alleene, AR",
    "lat": 33.77,
    "lon": -94.260278
  },
  {
    "name": "Alma, AR",
    "lat": 35.500043,
    "lon": -94.207337
  },
  {
    "name": "Almyra, AR",
    "lat": 34.41459,
    "lon": -91.430992
  },
  {
    "name": "Alpena, AR",
    "lat": 36.299768,
    "lon": -93.2792
  },
  {
    "name": "Alpine, AR",
    "lat": 34.228889,
    "lon": -93.378889
  },
  {
    "name": "Altheimer, AR",
    "lat": 34.306168,
    "lon": -91.828916
  },
  {
    "name": "Altus, AR",
    "lat": 35.404873,
    "lon": -93.811494
  },
  {
    "name": "Amagon, AR",
    "lat": 35.561559,
    "lon": -91.079636
  },
  {
    "name": "Amity, AR",
    "lat": 34.259362,
    "lon": -93.420551
  },
  {
    "name": "Antoine, AR",
    "lat": 34.028296,
    "lon": -93.437169
  },
  {
    "name": "Arkadelphia, AR",
    "lat": 34.11525,
    "lon": -93.068989
  },
  {
    "name": "Arkansas City, AR",
    "lat": 33.614328,
    "lon": -91.232529
  },
  {
    "name": "Armorel, AR",
    "lat": 35.942843,
    "lon": -89.758118
  },
  {
    "name": "Ash Flat, AR",
    "lat": 36.219732,
    "lon": -91.610746
  },
  {
    "name": "Ashdown, AR",
    "lat": 33.678711,
    "lon": -94.135102
  },
  {
    "name": "Atkins, AR",
    "lat": 35.244948,
    "lon": -92.950696
  },
  {
    "name": "Aubrey, AR",
    "lat": 34.702727,
    "lon": -90.911331
  },
  {
    "name": "Augusta, AR",
    "lat": 35.278806,
    "lon": -91.352653
  },
  {
    "name": "Austin, AR",
    "lat": 35.028369,
    "lon": -91.959398
  },
  {
    "name": "Avoca, AR",
    "lat": 36.401944,
    "lon": -94.070556
  },
  {
    "name": "Bald Knob, AR",
    "lat": 35.311331,
    "lon": -91.550197
  },
  {
    "name": "Banks, AR",
    "lat": 33.549665,
    "lon": -92.260386
  },
  {
    "name": "Barling, AR",
    "lat": 35.332963,
    "lon": -94.308226
  },
  {
    "name": "Barton, AR",
    "lat": 34.5475,
    "lon": -90.768056
  },
  {
    "name": "Bassett, AR",
    "lat": 35.513808,
    "lon": -90.192155
  },
  {
    "name": "Batesville, AR",
    "lat": 35.782614,
    "lon": -91.63519
  },
  {
    "name": "Bauxite, AR",
    "lat": 34.545537,
    "lon": -92.360531
  },
  {
    "name": "Bay, AR",
    "lat": 35.74559,
    "lon": -90.550658
  },
  {
    "name": "Bearden, AR",
    "lat": 33.729797,
    "lon": -92.61802
  },
  {
    "name": "Beaver, AR",
    "lat": 36.473611,
    "lon": -93.767222
  },
  {
    "name": "Bee Branch, AR",
    "lat": 35.423367,
    "lon": -92.408523
  },
  {
    "name": "Beebe, AR",
    "lat": 35.093743,
    "lon": -91.907449
  },
  {
    "name": "Beech Grove, AR",
    "lat": 36.183172,
    "lon": -90.618084
  },
  {
    "name": "Beedeville, AR",
    "lat": 35.420267,
    "lon": -91.106371
  },
  {
    "name": "Beirne, AR",
    "lat": 33.888611,
    "lon": -93.203889
  },
  {
    "name": "Bella Vista, AR",
    "lat": 36.465086,
    "lon": -94.251969
  },
  {
    "name": "Belleville, AR",
    "lat": 35.103762,
    "lon": -93.451817
  },
  {
    "name": "Ben Lomond, AR",
    "lat": 33.835278,
    "lon": -94.118333
  },
  {
    "name": "Benton, AR",
    "lat": 34.580087,
    "lon": -92.595241
  },
  {
    "name": "Bentonville, AR",
    "lat": 36.357703,
    "lon": -94.22242
  },
  {
    "name": "Bergman, AR",
    "lat": 36.316111,
    "lon": -93.0075
  },
  {
    "name": "Berryville, AR",
    "lat": 36.351908,
    "lon": -93.558725
  },
  {
    "name": "Bexar, AR",
    "lat": 36.306103,
    "lon": -91.985998
  },
  {
    "name": "Big Flat, AR",
    "lat": 36.006824,
    "lon": -92.391681
  },
  {
    "name": "Bigelow, AR",
    "lat": 34.984659,
    "lon": -92.630842
  },
  {
    "name": "Biggers, AR",
    "lat": 36.342978,
    "lon": -90.784467
  },
  {
    "name": "Biscoe, AR",
    "lat": 34.833706,
    "lon": -91.490028
  },
  {
    "name": "Bismarck, AR",
    "lat": 34.311033,
    "lon": -93.187236
  },
  {
    "name": "Black Oak, AR",
    "lat": 35.835851,
    "lon": -90.354227
  },
  {
    "name": "Black Rock, AR",
    "lat": 36.114874,
    "lon": -91.117629
  },
  {
    "name": "Blevins, AR",
    "lat": 33.875468,
    "lon": -93.536035
  },
  {
    "name": "Blue Mountain, AR",
    "lat": 35.130386,
    "lon": -93.716797
  },
  {
    "name": "Bluff City, AR",
    "lat": 33.698191,
    "lon": -93.186811
  },
  {
    "name": "Bluffton, AR",
    "lat": 34.901635,
    "lon": -93.591946
  },
  {
    "name": "Blytheville, AR",
    "lat": 35.934482,
    "lon": -89.922497
  },
  {
    "name": "Board Camp, AR",
    "lat": 34.537778,
    "lon": -94.095278
  },
  {
    "name": "Boles, AR",
    "lat": 34.765363,
    "lon": -94.062864
  },
  {
    "name": "Bonnerdale, AR",
    "lat": 34.349751,
    "lon": -93.319415
  },
  {
    "name": "Bono, AR",
    "lat": 35.908592,
    "lon": -90.784753
  },
  {
    "name": "Booneville, AR",
    "lat": 35.136385,
    "lon": -93.927433
  },
  {
    "name": "Bradford, AR",
    "lat": 35.427655,
    "lon": -91.518973
  },
  {
    "name": "Bradley, AR",
    "lat": 33.106963,
    "lon": -93.627496
  },
  {
    "name": "Branch, AR",
    "lat": 35.297055,
    "lon": -93.94537
  },
  {
    "name": "Brickeys, AR",
    "lat": 34.854814,
    "lon": -90.537738
  },
  {
    "name": "Briggsville, AR",
    "lat": 34.916065,
    "lon": -93.515748
  },
  {
    "name": "Brinkley, AR",
    "lat": 34.878124,
    "lon": -91.188596
  },
  {
    "name": "Brockwell, AR",
    "lat": 36.135755,
    "lon": -91.951308
  },
  {
    "name": "Brookland, AR",
    "lat": 35.91647,
    "lon": -90.576228
  },
  {
    "name": "Bryant, AR",
    "lat": 34.606786,
    "lon": -92.492015
  },
  {
    "name": "Buckner, AR",
    "lat": 33.375323,
    "lon": -93.446998
  },
  {
    "name": "Bull Shoals, AR",
    "lat": 36.370958,
    "lon": -92.593765
  },
  {
    "name": "Burdette, AR",
    "lat": 35.814769,
    "lon": -89.942312
  },
  {
    "name": "Cabot, AR",
    "lat": 34.945724,
    "lon": -92.031771
  },
  {
    "name": "Caddo Gap, AR",
    "lat": 34.397579,
    "lon": -93.586376
  },
  {
    "name": "Caldwell, AR",
    "lat": 35.074444,
    "lon": -90.816667
  },
  {
    "name": "Cale, AR",
    "lat": 33.616403,
    "lon": -93.26497
  },
  {
    "name": "Calico Rock, AR",
    "lat": 36.144771,
    "lon": -92.145494
  },
  {
    "name": "Calion, AR",
    "lat": 33.328889,
    "lon": -92.538333
  },
  {
    "name": "Camden, AR",
    "lat": 33.575866,
    "lon": -92.833386
  },
  {
    "name": "Camp, AR",
    "lat": 36.402531,
    "lon": -91.726166
  },
  {
    "name": "Canehill, AR",
    "lat": 35.910992,
    "lon": -94.3862
  },
  {
    "name": "Caraway, AR",
    "lat": 35.758951,
    "lon": -90.335797
  },
  {
    "name": "Carlisle, AR",
    "lat": 34.793291,
    "lon": -91.745929
  },
  {
    "name": "Carthage, AR",
    "lat": 34.063625,
    "lon": -92.62623
  },
  {
    "name": "Casa, AR",
    "lat": 35.032168,
    "lon": -93.047005
  },
  {
    "name": "Cash, AR",
    "lat": 35.830145,
    "lon": -90.941007
  },
  {
    "name": "Casscoe, AR",
    "lat": 34.473625,
    "lon": -91.324798
  },
  {
    "name": "Cave City, AR",
    "lat": 35.951684,
    "lon": -91.544432
  },
  {
    "name": "Cave Springs, AR",
    "lat": 36.266771,
    "lon": -94.207836
  },
  {
    "name": "Cecil, AR",
    "lat": 35.434176,
    "lon": -93.942932
  },
  {
    "name": "Cedarville, AR",
    "lat": 35.590231,
    "lon": -94.344618
  },
  {
    "name": "Center Ridge, AR",
    "lat": 35.398063,
    "lon": -92.558167
  },
  {
    "name": "Centerton, AR",
    "lat": 36.366993,
    "lon": -94.30891
  },
  {
    "name": "Centerville, AR",
    "lat": 35.112778,
    "lon": -93.168611
  },
  {
    "name": "Charleston, AR",
    "lat": 35.311502,
    "lon": -94.03368
  },
  {
    "name": "Charlotte, AR",
    "lat": 35.833393,
    "lon": -91.396217
  },
  {
    "name": "Cherokee Village, AR",
    "lat": 36.297778,
    "lon": -91.515833
  },
  {
    "name": "Cherry Valley, AR",
    "lat": 35.399122,
    "lon": -90.761329
  },
  {
    "name": "Chester, AR",
    "lat": 35.689776,
    "lon": -94.202026
  },
  {
    "name": "Chidester, AR",
    "lat": 33.700148,
    "lon": -93.018716
  },
  {
    "name": "Choctaw, AR",
    "lat": 35.523528,
    "lon": -92.426412
  },
  {
    "name": "Clarendon, AR",
    "lat": 34.660138,
    "lon": -91.256426
  },
  {
    "name": "Clarkedale, AR",
    "lat": 35.309167,
    "lon": -90.236111
  },
  {
    "name": "Clarkridge, AR",
    "lat": 36.443311,
    "lon": -92.35159
  },
  {
    "name": "Clarksville, AR",
    "lat": 35.490763,
    "lon": -93.491056
  },
  {
    "name": "Cleveland, AR",
    "lat": 35.358328,
    "lon": -92.712821
  },
  {
    "name": "Clinton, AR",
    "lat": 35.604537,
    "lon": -92.475825
  },
  {
    "name": "Coal Hill, AR",
    "lat": 35.437117,
    "lon": -93.67203
  },
  {
    "name": "College Station, AR",
    "lat": 34.708056,
    "lon": -92.221111
  },
  {
    "name": "Colt, AR",
    "lat": 35.096062,
    "lon": -90.787204
  },
  {
    "name": "Columbus, AR",
    "lat": 33.745108,
    "lon": -93.85588
  },
  {
    "name": "Combs, AR",
    "lat": 35.848297,
    "lon": -93.825218
  },
  {
    "name": "Compton, AR",
    "lat": 36.097941,
    "lon": -93.309903
  },
  {
    "name": "Concord, AR",
    "lat": 35.641355,
    "lon": -91.833339
  },
  {
    "name": "Conway, AR",
    "lat": 35.084199,
    "lon": -92.423574
  },
  {
    "name": "Cord, AR",
    "lat": 35.81844,
    "lon": -91.337455
  },
  {
    "name": "Corning, AR",
    "lat": 36.415532,
    "lon": -90.58702
  },
  {
    "name": "Cotter, AR",
    "lat": 36.280378,
    "lon": -92.532787
  },
  {
    "name": "Cotton Plant, AR",
    "lat": 35.017827,
    "lon": -91.229043
  },
  {
    "name": "Cove, AR",
    "lat": 34.419159,
    "lon": -94.39234
  },
  {
    "name": "Coy, AR",
    "lat": 34.538611,
    "lon": -91.873889
  },
  {
    "name": "Crawfordsville, AR",
    "lat": 35.211873,
    "lon": -90.335107
  },
  {
    "name": "Crocketts Bluff, AR",
    "lat": 34.425272,
    "lon": -91.232079
  },
  {
    "name": "Crossett, AR",
    "lat": 33.152369,
    "lon": -91.959152
  },
  {
    "name": "Crumrod, AR",
    "lat": 34.216167,
    "lon": -90.949535
  },
  {
    "name": "Curtis, AR",
    "lat": 33.997778,
    "lon": -93.105556
  },
  {
    "name": "Cushman, AR",
    "lat": 35.869663,
    "lon": -91.776455
  },
  {
    "name": "Damascus, AR",
    "lat": 35.291042,
    "lon": -92.432952
  },
  {
    "name": "Danville, AR",
    "lat": 35.049541,
    "lon": -93.392933
  },
  {
    "name": "Dardanelle, AR",
    "lat": 35.195507,
    "lon": -93.187316
  },
  {
    "name": "Datto, AR",
    "lat": 36.389685,
    "lon": -90.723117
  },
  {
    "name": "De Queen, AR",
    "lat": 34.044206,
    "lon": -94.338559
  },
  {
    "name": "De Valls Bluff, AR",
    "lat": 34.744704,
    "lon": -91.498218
  },
  {
    "name": "De Witt, AR",
    "lat": 34.285312,
    "lon": -91.333627
  },
  {
    "name": "Decatur, AR",
    "lat": 36.334749,
    "lon": -94.453411
  },
  {
    "name": "Deer, AR",
    "lat": 35.852982,
    "lon": -93.317388
  },
  {
    "name": "Delaplaine, AR",
    "lat": 36.199485,
    "lon": -90.734482
  },
  {
    "name": "Delaware, AR",
    "lat": 35.278005,
    "lon": -93.346152
  },
  {
    "name": "Delight, AR",
    "lat": 34.023772,
    "lon": -93.524666
  },
  {
    "name": "Dell, AR",
    "lat": 35.850118,
    "lon": -90.035449
  },
  {
    "name": "Dennard, AR",
    "lat": 35.725236,
    "lon": -92.557456
  },
  {
    "name": "Dermott, AR",
    "lat": 33.524054,
    "lon": -91.439391
  },
  {
    "name": "Des Arc, AR",
    "lat": 34.97507,
    "lon": -91.511342
  },
  {
    "name": "Desha, AR",
    "lat": 35.731524,
    "lon": -91.678287
  },
  {
    "name": "Diamond City, AR",
    "lat": 36.464444,
    "lon": -92.92
  },
  {
    "name": "Diaz, AR",
    "lat": 35.638333,
    "lon": -91.265
  },
  {
    "name": "Dierks, AR",
    "lat": 34.13232,
    "lon": -94.015243
  },
  {
    "name": "Doddridge, AR",
    "lat": 33.105448,
    "lon": -93.954307
  },
  {
    "name": "Dolph, AR",
    "lat": 36.222878,
    "lon": -92.11766
  },
  {
    "name": "Donaldson, AR",
    "lat": 34.221221,
    "lon": -92.909384
  },
  {
    "name": "Dover, AR",
    "lat": 35.407356,
    "lon": -93.135526
  },
  {
    "name": "Drasco, AR",
    "lat": 35.661606,
    "lon": -91.939818
  },
  {
    "name": "Driver, AR",
    "lat": 35.559714,
    "lon": -89.960526
  },
  {
    "name": "Dumas, AR",
    "lat": 33.892102,
    "lon": -91.486056
  },
  {
    "name": "Dyer, AR",
    "lat": 35.492222,
    "lon": -94.1375
  },
  {
    "name": "Dyess, AR",
    "lat": 35.595394,
    "lon": -90.215716
  },
  {
    "name": "Earle, AR",
    "lat": 35.27989,
    "lon": -90.450261
  },
  {
    "name": "Edgemont, AR",
    "lat": 35.623006,
    "lon": -92.199471
  },
  {
    "name": "Edmondson, AR",
    "lat": 35.022309,
    "lon": -90.328672
  },
  {
    "name": "Egypt, AR",
    "lat": 35.868056,
    "lon": -90.945556
  },
  {
    "name": "El Dorado, AR",
    "lat": 33.20735,
    "lon": -92.662856
  },
  {
    "name": "El Paso, AR",
    "lat": 35.114176,
    "lon": -92.090076
  },
  {
    "name": "Elaine, AR",
    "lat": 34.308668,
    "lon": -90.873485
  },
  {
    "name": "Elizabeth, AR",
    "lat": 36.323776,
    "lon": -92.093366
  },
  {
    "name": "Elkins, AR",
    "lat": 36.017719,
    "lon": -94.007323
  },
  {
    "name": "Elm Springs, AR",
    "lat": 36.206111,
    "lon": -94.234167
  },
  {
    "name": "Emerson, AR",
    "lat": 33.089054,
    "lon": -93.198699
  },
  {
    "name": "Emmet, AR",
    "lat": 33.692896,
    "lon": -93.423242
  },
  {
    "name": "England, AR",
    "lat": 34.557458,
    "lon": -91.948422
  },
  {
    "name": "Enola, AR",
    "lat": 35.208705,
    "lon": -92.212328
  },
  {
    "name": "Ethel, AR",
    "lat": 34.243525,
    "lon": -91.139839
  },
  {
    "name": "Etowah, AR",
    "lat": 35.714707,
    "lon": -90.218172
  },
  {
    "name": "Eudora, AR",
    "lat": 33.12135,
    "lon": -91.271552
  },
  {
    "name": "Eureka Springs, AR",
    "lat": 36.485278,
    "lon": -93.731944
  },
  {
    "name": "Evansville, AR",
    "lat": 35.819345,
    "lon": -94.478936
  },
  {
    "name": "Evening Shade, AR",
    "lat": 36.085532,
    "lon": -91.598014
  },
  {
    "name": "Everton, AR",
    "lat": 36.153366,
    "lon": -92.914989
  },
  {
    "name": "Fairfield Bay, AR",
    "lat": 35.656111,
    "lon": -92.319167
  },
  {
    "name": "Farmington, AR",
    "lat": 36.043635,
    "lon": -94.253871
  },
  {
    "name": "Fayetteville, AR",
    "lat": 36.052045,
    "lon": -94.153395
  },
  {
    "name": "Fifty Six, AR",
    "lat": 35.991958,
    "lon": -92.218169
  },
  {
    "name": "Fisher, AR",
    "lat": 35.513956,
    "lon": -90.955001
  },
  {
    "name": "Flippin, AR",
    "lat": 36.268219,
    "lon": -92.577995
  },
  {
    "name": "Floral, AR",
    "lat": 35.602337,
    "lon": -91.734101
  },
  {
    "name": "Fordyce, AR",
    "lat": 33.817648,
    "lon": -92.422475
  },
  {
    "name": "Foreman, AR",
    "lat": 33.71759,
    "lon": -94.388108
  },
  {
    "name": "Forrest City, AR",
    "lat": 35.009129,
    "lon": -90.788572
  },
  {
    "name": "Fort Smith, AR",
    "lat": 35.365272,
    "lon": -94.411035
  },
  {
    "name": "Fouke, AR",
    "lat": 33.302476,
    "lon": -93.900953
  },
  {
    "name": "Fountain Hill, AR",
    "lat": 33.342951,
    "lon": -91.835627
  },
  {
    "name": "Fox, AR",
    "lat": 35.768208,
    "lon": -92.304266
  },
  {
    "name": "Franklin, AR",
    "lat": 36.129093,
    "lon": -91.809592
  },
  {
    "name": "Frenchmans Bayou, AR",
    "lat": 35.478419,
    "lon": -90.055933
  },
  {
    "name": "Friendship, AR",
    "lat": 34.241225,
    "lon": -92.980393
  },
  {
    "name": "Fulton, AR",
    "lat": 33.629876,
    "lon": -93.808562
  },
  {
    "name": "Gamaliel, AR",
    "lat": 36.461794,
    "lon": -92.228447
  },
  {
    "name": "Garfield, AR",
    "lat": 36.428817,
    "lon": -93.951197
  },
  {
    "name": "Garland City, AR",
    "lat": 33.335161,
    "lon": -93.731624
  },
  {
    "name": "Garner, AR",
    "lat": 35.130305,
    "lon": -91.742884
  },
  {
    "name": "Gassville, AR",
    "lat": 36.317525,
    "lon": -92.473637
  },
  {
    "name": "Gateway, AR",
    "lat": 36.485751,
    "lon": -93.935016
  },
  {
    "name": "Genoa, AR",
    "lat": 33.383611,
    "lon": -93.909444
  },
  {
    "name": "Gentry, AR",
    "lat": 36.26516,
    "lon": -94.475131
  },
  {
    "name": "Gepp, AR",
    "lat": 36.436443,
    "lon": -92.099507
  },
  {
    "name": "Gilbert, AR",
    "lat": 35.987778,
    "lon": -92.716111
  },
  {
    "name": "Gillett, AR",
    "lat": 34.121838,
    "lon": -91.380048
  },
  {
    "name": "Gillham, AR",
    "lat": 34.157003,
    "lon": -94.316497
  },
  {
    "name": "Gilmore, AR",
    "lat": 35.386408,
    "lon": -90.264664
  },
  {
    "name": "Glencoe, AR",
    "lat": 36.288962,
    "lon": -91.769483
  },
  {
    "name": "Glenwood, AR",
    "lat": 34.319207,
    "lon": -93.555881
  },
  {
    "name": "Goodwin, AR",
    "lat": 34.959149,
    "lon": -90.983518
  },
  {
    "name": "Goshen, AR",
    "lat": 36.107523,
    "lon": -93.987262
  },
  {
    "name": "Gosnell, AR",
    "lat": 35.9272,
    "lon": -89.9188
  },
  {
    "name": "Gould, AR",
    "lat": 34.034503,
    "lon": -91.576798
  },
  {
    "name": "Grady, AR",
    "lat": 34.030484,
    "lon": -91.67082
  },
  {
    "name": "Grannis, AR",
    "lat": 34.237021,
    "lon": -94.3255
  },
  {
    "name": "Grapevine, AR",
    "lat": 34.130893,
    "lon": -92.310944
  },
  {
    "name": "Gravelly, AR",
    "lat": 34.888123,
    "lon": -93.680249
  },
  {
    "name": "Gravette, AR",
    "lat": 36.415513,
    "lon": -94.477862
  },
  {
    "name": "Green Forest, AR",
    "lat": 36.322408,
    "lon": -93.405875
  },
  {
    "name": "Greenbrier, AR",
    "lat": 35.229547,
    "lon": -92.357792
  },
  {
    "name": "Greenland, AR",
    "lat": 35.994167,
    "lon": -94.175
  },
  {
    "name": "Greenway, AR",
    "lat": 36.334766,
    "lon": -90.225257
  },
  {
    "name": "Greenwood, AR",
    "lat": 35.195476,
    "lon": -94.253027
  },
  {
    "name": "Gregory, AR",
    "lat": 35.155278,
    "lon": -91.343056
  },
  {
    "name": "Griffithville, AR",
    "lat": 35.114383,
    "lon": -91.624234
  },
  {
    "name": "Grubbs, AR",
    "lat": 35.649722,
    "lon": -91.073889
  },
  {
    "name": "Guion, AR",
    "lat": 35.960135,
    "lon": -91.934287
  },
  {
    "name": "Gurdon, AR",
    "lat": 33.912493,
    "lon": -93.141691
  },
  {
    "name": "Guy, AR",
    "lat": 35.318487,
    "lon": -92.331539
  },
  {
    "name": "Hackett, AR",
    "lat": 35.194476,
    "lon": -94.398328
  },
  {
    "name": "Hagarville, AR",
    "lat": 35.523291,
    "lon": -93.344256
  },
  {
    "name": "Hamburg, AR",
    "lat": 33.2058,
    "lon": -91.802265
  },
  {
    "name": "Hampton, AR",
    "lat": 33.537613,
    "lon": -92.52951
  },
  {
    "name": "Hardy, AR",
    "lat": 36.322746,
    "lon": -91.411027
  },
  {
    "name": "Harrell, AR",
    "lat": 33.510865,
    "lon": -92.391243
  },
  {
    "name": "Harriet, AR",
    "lat": 35.974187,
    "lon": -92.50055
  },
  {
    "name": "Harrisburg, AR",
    "lat": 35.572222,
    "lon": -90.703752
  },
  {
    "name": "Harrison, AR",
    "lat": 36.241707,
    "lon": -93.106162
  },
  {
    "name": "Hartford, AR",
    "lat": 35.022233,
    "lon": -94.381876
  },
  {
    "name": "Hartman, AR",
    "lat": 35.443583,
    "lon": -93.614196
  },
  {
    "name": "Harvey, AR",
    "lat": 34.867912,
    "lon": -93.752538
  },
  {
    "name": "Hasty, AR",
    "lat": 36.015229,
    "lon": -93.045966
  },
  {
    "name": "Hatfield, AR",
    "lat": 34.487703,
    "lon": -94.371397
  },
  {
    "name": "Hattieville, AR",
    "lat": 35.290713,
    "lon": -92.778317
  },
  {
    "name": "Havana, AR",
    "lat": 35.111845,
    "lon": -93.576719
  },
  {
    "name": "Haynes, AR",
    "lat": 34.883752,
    "lon": -90.766621
  },
  {
    "name": "Hazen, AR",
    "lat": 34.783833,
    "lon": -91.576699
  },
  {
    "name": "Heber Springs, AR",
    "lat": 35.510278,
    "lon": -92.039211
  },
  {
    "name": "Hector, AR",
    "lat": 35.40574,
    "lon": -92.965559
  },
  {
    "name": "Helena, AR",
    "lat": 34.532491,
    "lon": -90.629784
  },
  {
    "name": "Henderson, AR",
    "lat": 36.356829,
    "lon": -92.269253
  },
  {
    "name": "Hensley, AR",
    "lat": 34.591133,
    "lon": -92.214019
  },
  {
    "name": "Hermitage, AR",
    "lat": 33.422207,
    "lon": -92.127714
  },
  {
    "name": "Heth, AR",
    "lat": 35.097335,
    "lon": -90.458554
  },
  {
    "name": "Hickory Plains, AR",
    "lat": 34.978642,
    "lon": -91.750844
  },
  {
    "name": "Hickory Ridge, AR",
    "lat": 35.399457,
    "lon": -90.982283
  },
  {
    "name": "Higden, AR",
    "lat": 35.549812,
    "lon": -92.182284
  },
  {
    "name": "Higginson, AR",
    "lat": 35.188254,
    "lon": -91.71828
  },
  {
    "name": "Hindsville, AR",
    "lat": 36.142206,
    "lon": -93.863339
  },
  {
    "name": "Hiwasse, AR",
    "lat": 36.441589,
    "lon": -94.338993
  },
  {
    "name": "Holly Grove, AR",
    "lat": 34.599294,
    "lon": -91.184376
  },
  {
    "name": "Hope, AR",
    "lat": 33.656645,
    "lon": -93.590305
  },
  {
    "name": "Horatio, AR",
    "lat": 33.939221,
    "lon": -94.295942
  },
  {
    "name": "Horseshoe Bend, AR",
    "lat": 36.202502,
    "lon": -91.755334
  },
  {
    "name": "Hot Springs National Park, AR",
    "lat": 34.501475,
    "lon": -93.026024
  },
  {
    "name": "Hot Springs Village, AR",
    "lat": 34.6411,
    "lon": -93.0574
  },
  {
    "name": "Houston, AR",
    "lat": 35.036209,
    "lon": -92.691319
  },
  {
    "name": "Hoxie, AR",
    "lat": 36.032573,
    "lon": -90.971504
  },
  {
    "name": "Hughes, AR",
    "lat": 34.945416,
    "lon": -90.474142
  },
  {
    "name": "Humnoke, AR",
    "lat": 34.541896,
    "lon": -91.756616
  },
  {
    "name": "Humphrey, AR",
    "lat": 34.403387,
    "lon": -91.67896
  },
  {
    "name": "Hunter, AR",
    "lat": 35.052778,
    "lon": -91.126111
  },
  {
    "name": "Huntington, AR",
    "lat": 35.096267,
    "lon": -94.331283
  },
  {
    "name": "Huntsville, AR",
    "lat": 36.104348,
    "lon": -93.727893
  },
  {
    "name": "Huttig, AR",
    "lat": 33.045888,
    "lon": -92.194153
  },
  {
    "name": "Ida, AR",
    "lat": 35.594326,
    "lon": -91.930081
  },
  {
    "name": "Imboden, AR",
    "lat": 36.19763,
    "lon": -91.185442
  },
  {
    "name": "Ivan, AR",
    "lat": 33.902984,
    "lon": -92.439406
  },
  {
    "name": "Jacksonport, AR",
    "lat": 35.641667,
    "lon": -91.309444
  },
  {
    "name": "Jacksonville, AR",
    "lat": 34.881985,
    "lon": -92.130435
  },
  {
    "name": "Jasper, AR",
    "lat": 36.003798,
    "lon": -93.204771
  },
  {
    "name": "Jefferson, AR",
    "lat": 34.355285,
    "lon": -92.148574
  },
  {
    "name": "Jersey, AR",
    "lat": 33.388914,
    "lon": -92.296613
  },
  {
    "name": "Jerusalem, AR",
    "lat": 35.37975,
    "lon": -92.813886
  },
  {
    "name": "Jessieville, AR",
    "lat": 34.693729,
    "lon": -93.196318
  },
  {
    "name": "Johnson, AR",
    "lat": 36.132778,
    "lon": -94.165278
  },
  {
    "name": "Joiner, AR",
    "lat": 35.505239,
    "lon": -90.14779
  },
  {
    "name": "Jones Mill, AR",
    "lat": 34.453624,
    "lon": -92.861975
  },
  {
    "name": "Jonesboro, AR",
    "lat": 35.833016,
    "lon": -90.696526
  },
  {
    "name": "Judsonia, AR",
    "lat": 35.324954,
    "lon": -91.649087
  },
  {
    "name": "Junction City, AR",
    "lat": 33.043965,
    "lon": -92.684254
  },
  {
    "name": "Keiser, AR",
    "lat": 35.678626,
    "lon": -90.096171
  },
  {
    "name": "Kensett, AR",
    "lat": 35.229939,
    "lon": -91.669672
  },
  {
    "name": "Keo, AR",
    "lat": 34.604072,
    "lon": -92.007844
  },
  {
    "name": "Kingsland, AR",
    "lat": 33.86002,
    "lon": -92.301415
  },
  {
    "name": "Kingston, AR",
    "lat": 36.04845,
    "lon": -93.504357
  },
  {
    "name": "Kirby, AR",
    "lat": 34.255153,
    "lon": -93.616716
  },
  {
    "name": "Knobel, AR",
    "lat": 36.317647,
    "lon": -90.599048
  },
  {
    "name": "Knoxville, AR",
    "lat": 35.374897,
    "lon": -93.361797
  },
  {
    "name": "La Grange, AR",
    "lat": 34.656389,
    "lon": -90.732778
  },
  {
    "name": "Lafe, AR",
    "lat": 36.21547,
    "lon": -90.506973
  },
  {
    "name": "Lake City, AR",
    "lat": 35.81715,
    "lon": -90.442327
  },
  {
    "name": "Lake Village, AR",
    "lat": 33.327408,
    "lon": -91.282487
  },
  {
    "name": "Lakeview, AR",
    "lat": 36.397308,
    "lon": -92.504416
  },
  {
    "name": "Lamar, AR",
    "lat": 35.434868,
    "lon": -93.355157
  },
  {
    "name": "Lambrook, AR",
    "lat": 34.335556,
    "lon": -90.9675
  },
  {
    "name": "Laneburg, AR",
    "lat": 33.685,
    "lon": -93.346667
  },
  {
    "name": "Langley, AR",
    "lat": 34.314035,
    "lon": -93.850942
  },
  {
    "name": "Lavaca, AR",
    "lat": 35.337513,
    "lon": -94.165637
  },
  {
    "name": "Lawson, AR",
    "lat": 33.196667,
    "lon": -92.482778
  },
  {
    "name": "Leachville, AR",
    "lat": 35.933216,
    "lon": -90.195488
  },
  {
    "name": "Lead Hill, AR",
    "lat": 36.430886,
    "lon": -92.930194
  },
  {
    "name": "Leola, AR",
    "lat": 34.185605,
    "lon": -92.597865
  },
  {
    "name": "Lepanto, AR",
    "lat": 35.606909,
    "lon": -90.335883
  },
  {
    "name": "Leslie, AR",
    "lat": 35.82716,
    "lon": -92.566293
  },
  {
    "name": "Letona, AR",
    "lat": 35.361667,
    "lon": -91.829167
  },
  {
    "name": "Lewisville, AR",
    "lat": 33.373603,
    "lon": -93.595258
  },
  {
    "name": "Lexa, AR",
    "lat": 34.672694,
    "lon": -90.78532
  },
  {
    "name": "Light, AR",
    "lat": 36.07,
    "lon": -90.747778
  },
  {
    "name": "Lincoln, AR",
    "lat": 35.956931,
    "lon": -94.42724
  },
  {
    "name": "Little Rock, AR",
    "lat": 34.748342,
    "lon": -92.281939
  },
  {
    "name": "Little Rock Air Force Base, AR",
    "lat": 34.898611,
    "lon": -92.144167
  },
  {
    "name": "Lockesburg, AR",
    "lat": 33.930553,
    "lon": -94.127588
  },
  {
    "name": "Locust Grove, AR",
    "lat": 35.717705,
    "lon": -91.741443
  },
  {
    "name": "London, AR",
    "lat": 35.337017,
    "lon": -93.238907
  },
  {
    "name": "Lonoke, AR",
    "lat": 34.783162,
    "lon": -91.921367
  },
  {
    "name": "Lonsdale, AR",
    "lat": 34.556203,
    "lon": -92.834034
  },
  {
    "name": "Louann, AR",
    "lat": 33.411744,
    "lon": -92.782759
  },
  {
    "name": "Lowell, AR",
    "lat": 36.243318,
    "lon": -94.082725
  },
  {
    "name": "Luxora, AR",
    "lat": 35.760786,
    "lon": -89.92204
  },
  {
    "name": "Lynn, AR",
    "lat": 36.016639,
    "lon": -91.254588
  },
  {
    "name": "Mabelvale, AR",
    "lat": 34.621756,
    "lon": -92.384618
  },
  {
    "name": "Madison, AR",
    "lat": 35.013056,
    "lon": -90.7225
  },
  {
    "name": "Magazine, AR",
    "lat": 35.15873,
    "lon": -93.800336
  },
  {
    "name": "Magness, AR",
    "lat": 35.710062,
    "lon": -91.485041
  },
  {
    "name": "Magnolia, AR",
    "lat": 33.264678,
    "lon": -93.239153
  },
  {
    "name": "Malvern, AR",
    "lat": 34.355715,
    "lon": -92.829162
  },
  {
    "name": "Mammoth Spring, AR",
    "lat": 36.407648,
    "lon": -91.575712
  },
  {
    "name": "Manila, AR",
    "lat": 35.874885,
    "lon": -90.180252
  },
  {
    "name": "Mansfield, AR",
    "lat": 35.0432,
    "lon": -94.22036
  },
  {
    "name": "Marble Falls, AR",
    "lat": 36.095121,
    "lon": -93.144822
  },
  {
    "name": "Marcella, AR",
    "lat": 35.749654,
    "lon": -91.941891
  },
  {
    "name": "Marianna, AR",
    "lat": 34.775929,
    "lon": -90.77852
  },
  {
    "name": "Marion, AR",
    "lat": 35.2077,
    "lon": -90.198908
  },
  {
    "name": "Marked Tree, AR",
    "lat": 35.534933,
    "lon": -90.419387
  },
  {
    "name": "Marmaduke, AR",
    "lat": 36.195117,
    "lon": -90.38368
  },
  {
    "name": "Marshall, AR",
    "lat": 35.926697,
    "lon": -92.640203
  },
  {
    "name": "Marvell, AR",
    "lat": 34.548541,
    "lon": -90.941322
  },
  {
    "name": "Maumelle, AR",
    "lat": 34.849085,
    "lon": -92.405892
  },
  {
    "name": "Mayflower, AR",
    "lat": 34.966853,
    "lon": -92.400102
  },
  {
    "name": "Maynard, AR",
    "lat": 36.438563,
    "lon": -90.874921
  },
  {
    "name": "Maysville, AR",
    "lat": 36.401062,
    "lon": -94.581278
  },
  {
    "name": "Mc Caskill, AR",
    "lat": 33.923042,
    "lon": -93.626605
  },
  {
    "name": "Mc Crory, AR",
    "lat": 35.247292,
    "lon": -91.179327
  },
  {
    "name": "Mc Dougal, AR",
    "lat": 36.379909,
    "lon": -90.394093
  },
  {
    "name": "Mc Gehee, AR",
    "lat": 33.62971,
    "lon": -91.392781
  },
  {
    "name": "Mc Neil, AR",
    "lat": 33.36222,
    "lon": -93.193006
  },
  {
    "name": "Mc Rae, AR",
    "lat": 35.11322,
    "lon": -91.821551
  },
  {
    "name": "Melbourne, AR",
    "lat": 36.059958,
    "lon": -91.905196
  },
  {
    "name": "Mellwood, AR",
    "lat": 34.220032,
    "lon": -91.008589
  },
  {
    "name": "Mena, AR",
    "lat": 34.581435,
    "lon": -94.220984
  },
  {
    "name": "Menifee, AR",
    "lat": 35.148333,
    "lon": -92.553889
  },
  {
    "name": "Midland, AR",
    "lat": 35.093056,
    "lon": -94.353056
  },
  {
    "name": "Midway, AR",
    "lat": 36.290454,
    "lon": -92.431398
  },
  {
    "name": "Mineral Springs, AR",
    "lat": 33.863852,
    "lon": -93.918828
  },
  {
    "name": "Minturn, AR",
    "lat": 35.976096,
    "lon": -91.033704
  },
  {
    "name": "Monette, AR",
    "lat": 35.900168,
    "lon": -90.343658
  },
  {
    "name": "Monroe, AR",
    "lat": 34.734722,
    "lon": -91.104444
  },
  {
    "name": "Monticello, AR",
    "lat": 33.624951,
    "lon": -91.794845
  },
  {
    "name": "Montrose, AR",
    "lat": 33.307516,
    "lon": -91.522776
  },
  {
    "name": "Moro, AR",
    "lat": 34.802953,
    "lon": -91.006026
  },
  {
    "name": "Morrilton, AR",
    "lat": 35.169227,
    "lon": -92.735436
  },
  {
    "name": "Morrow, AR",
    "lat": 35.85373,
    "lon": -94.425793
  },
  {
    "name": "Moscow, AR",
    "lat": 34.146389,
    "lon": -91.795
  },
  {
    "name": "Mount Holly, AR",
    "lat": 33.308534,
    "lon": -92.944265
  },
  {
    "name": "Mount Ida, AR",
    "lat": 34.561194,
    "lon": -93.574904
  },
  {
    "name": "Mount Judea, AR",
    "lat": 35.834674,
    "lon": -93.082391
  },
  {
    "name": "Mount Pleasant, AR",
    "lat": 35.975909,
    "lon": -91.785013
  },
  {
    "name": "Mount Vernon, AR",
    "lat": 35.260613,
    "lon": -92.137334
  },
  {
    "name": "Mountain Home, AR",
    "lat": 36.331153,
    "lon": -92.375337
  },
  {
    "name": "Mountain Pine, AR",
    "lat": 34.577182,
    "lon": -93.160041
  },
  {
    "name": "Mountain View, AR",
    "lat": 35.865769,
    "lon": -92.114762
  },
  {
    "name": "Mountainburg, AR",
    "lat": 35.570027,
    "lon": -94.109094
  },
  {
    "name": "Mulberry, AR",
    "lat": 35.517246,
    "lon": -93.988505
  },
  {
    "name": "Murfreesboro, AR",
    "lat": 34.101734,
    "lon": -93.710903
  },
  {
    "name": "Nashville, AR",
    "lat": 33.957646,
    "lon": -93.870709
  },
  {
    "name": "Natural Dam, AR",
    "lat": 35.674259,
    "lon": -94.412377
  },
  {
    "name": "New Blaine, AR",
    "lat": 35.318912,
    "lon": -93.44457
  },
  {
    "name": "New Edinburg, AR",
    "lat": 33.758846,
    "lon": -92.193909
  },
  {
    "name": "Newark, AR",
    "lat": 35.71183,
    "lon": -91.439395
  },
  {
    "name": "Newhope, AR",
    "lat": 34.227347,
    "lon": -93.890487
  },
  {
    "name": "Newport, AR",
    "lat": 35.598823,
    "lon": -91.257064
  },
  {
    "name": "Norfork, AR",
    "lat": 36.206571,
    "lon": -92.273011
  },
  {
    "name": "Norman, AR",
    "lat": 34.459633,
    "lon": -93.674304
  },
  {
    "name": "Norphlet, AR",
    "lat": 33.309619,
    "lon": -92.657619
  },
  {
    "name": "North Little Rock, AR",
    "lat": 34.766974,
    "lon": -92.265376
  },
  {
    "name": "O Kean, AR",
    "lat": 36.179672,
    "lon": -90.824069
  },
  {
    "name": "Oak Grove, AR",
    "lat": 36.461347,
    "lon": -93.432129
  },
  {
    "name": "Oakland, AR",
    "lat": 36.444227,
    "lon": -92.583187
  },
  {
    "name": "Oark, AR",
    "lat": 35.709454,
    "lon": -93.558531
  },
  {
    "name": "Oden, AR",
    "lat": 34.611292,
    "lon": -93.821103
  },
  {
    "name": "Ogden, AR",
    "lat": 33.585706,
    "lon": -94.027826
  },
  {
    "name": "Oil Trough, AR",
    "lat": 35.613147,
    "lon": -91.470305
  },
  {
    "name": "Okolona, AR",
    "lat": 34.055138,
    "lon": -93.289679
  },
  {
    "name": "Ola, AR",
    "lat": 35.03091,
    "lon": -93.21356
  },
  {
    "name": "Omaha, AR",
    "lat": 36.46123,
    "lon": -93.188753
  },
  {
    "name": "Oneida, AR",
    "lat": 34.405267,
    "lon": -90.826045
  },
  {
    "name": "Onia, AR",
    "lat": 35.940339,
    "lon": -92.345859
  },
  {
    "name": "Osceola, AR",
    "lat": 35.701864,
    "lon": -89.979764
  },
  {
    "name": "Oxford, AR",
    "lat": 36.211408,
    "lon": -91.925849
  },
  {
    "name": "Ozan, AR",
    "lat": 33.902775,
    "lon": -93.771443
  },
  {
    "name": "Ozark, AR",
    "lat": 35.524645,
    "lon": -93.837423
  },
  {
    "name": "Ozone, AR",
    "lat": 35.657478,
    "lon": -93.43111
  },
  {
    "name": "Palestine, AR",
    "lat": 34.966346,
    "lon": -90.904929
  },
  {
    "name": "Pangburn, AR",
    "lat": 35.421583,
    "lon": -91.795971
  },
  {
    "name": "Paragould, AR",
    "lat": 36.060033,
    "lon": -90.525093
  },